{"type":"FeatureCollection", "features": [
{"type":"Feature","geometry":{"type":"Point","coordinates":[7.891249993899147,45.30518018894232]},"properties":{"OBJECTID":4,"COD_ISTAT":1001047,"COD_REG":1,"COD_PRO":1,"PRO_COM":1047,"LOC2011":104710002,"LOC":10002,"TIPO_LOC":1,"DENOMINAZI":"Caluso","ALTITUDINE":"303","CENTRO_CL":1,"POPRES":5203,"MASCHI":2425,"FAMIGLIE":2363,"ABITAZIONI":2565,"EDIFICI":1339,"Shape_Leng":19987.204804,"Shape_Area":2408127.27933,"PRO_COM_T":"001047"}},
{"type":"Feature","geometry":{"type":"Point","coordinates":[7.776994615659558,44.97108497062254]},"properties":{"OBJECTID":11,"COD_ISTAT":1001048,"COD_REG":1,"COD_PRO":1,"PRO_COM":1048,"LOC2011":104810001,"LOC":10001,"TIPO_LOC":1,"DENOMINAZI":"Cambiano","ALTITUDINE":"253","CENTRO_CL":1,"POPRES":5784,"MASCHI":2813,"FAMIGLIE":2314,"ABITAZIONI":2466,"EDIFICI":985,"Shape_Leng":17931.5798423,"Shape_Area":2431114.85445,"PRO_COM_T":"001048"}},
{"type":"Feature","geometry":{"type":"Point","coordinates":[7.3202824572760035,44.80197872766817]},"properties":{"OBJECTID":13,"COD_ISTAT":1001049,"COD_REG":1,"COD_PRO":1,"PRO_COM":1049,"LOC2011":104910001,"LOC":10001,"TIPO_LOC":1,"DENOMINAZI":"Campiglione","ALTITUDINE":"365","CENTRO_CL":1,"POPRES":565,"MASCHI":271,"FAMIGLIE":253,"ABITAZIONI":257,"EDIFICI":147,"Shape_Leng":5664.058691,"Shape_Area":354441.263833,"PRO_COM_T":"001049"}},
{"type":"Feature","geometry":{"type":"Point","coordinates":[7.887205715117963,45.329040948965684]},"properties":{"OBJECTID":22,"COD_ISTAT":1001050,"COD_REG":1,"COD_PRO":1,"PRO_COM":1050,"LOC2011":105010001,"LOC":10001,"TIPO_LOC":1,"DENOMINAZI":"Candia Canavese","ALTITUDINE":"285","CENTRO_CL":1,"POPRES":1165,"MASCHI":562,"FAMIGLIE":523,"ABITAZIONI":590,"EDIFICI":430,"Shape_Leng":9162.70249825,"Shape_Area":737215.536729,"PRO_COM_T":"001050"}},
{"type":"Feature","geometry":{"type":"Point","coordinates":[7.59791189879086,44.95867074211582]},"properties":{"OBJECTID":27,"COD_ISTAT":1001051,"COD_REG":1,"COD_PRO":1,"PRO_COM":1051,"LOC2011":105110001,"LOC":10001,"TIPO_LOC":1,"DENOMINAZI":"Candiolo","ALTITUDINE":"237","CENTRO_CL":1,"POPRES":5452,"MASCHI":2665,"FAMIGLIE":2181,"ABITAZIONI":2338,"EDIFICI":779,"Shape_Leng":7724.35127474,"Shape_Area":1564574.03137,"PRO_COM_T":"001051"}},
{"type":"Feature","geometry":{"type":"Point","coordinates":[7.595607564917224,45.37473602116299]},"properties":{"OBJECTID":32,"COD_ISTAT":1001052,"COD_REG":1,"COD_PRO":1,"PRO_COM":1052,"LOC2011":105210001,"LOC":10001,"TIPO_LOC":1,"DENOMINAZI":"Mezzavilla","ALTITUDINE":"659","CENTRO_CL":1,"POPRES":128,"MASCHI":68,"FAMIGLIE":68,"ABITAZIONI":143,"EDIFICI":164,"Shape_Leng":4625.78226241,"Shape_Area":159873.24334,"PRO_COM_T":"001052"}},
{"type":"Feature","geometry":{"type":"Point","coordinates":[7.329120597961306,44.946616780432045]},"properties":{"OBJECTID":37,"COD_ISTAT":1001053,"COD_REG":1,"COD_PRO":1,"PRO_COM":1053,"LOC2011":105310001,"LOC":10001,"TIPO_LOC":1,"DENOMINAZI":"Cantalupa","ALTITUDINE":"420","CENTRO_CL":1,"POPRES":2102,"MASCHI":1017,"FAMIGLIE":885,"ABITAZIONI":1119,"EDIFICI":905,"Shape_Leng":32047.6641629,"Shape_Area":2182369.82222,"PRO_COM_T":"001053"}},
{"type":"Feature","geometry":{"type":"Point","coordinates":[7.382429660929839,45.34280440241318]},"properties":{"OBJECTID":38,"COD_ISTAT":1001054,"COD_REG":1,"COD_PRO":1,"PRO_COM":1054,"LOC2011":105410001,"LOC":10001,"TIPO_LOC":1,"DENOMINAZI":"Cantoira","ALTITUDINE":"750","CENTRO_CL":1,"POPRES":511,"MASCHI":263,"FAMIGLIE":266,"ABITAZIONI":1965,"EDIFICI":585,"Shape_Leng":8520.81513805,"Shape_Area":687938.04747,"PRO_COM_T":"001054"}},
{"type":"Feature","geometry":{"type":"Point","coordinates":[7.331172706102467,45.1200543032497]},"properties":{"OBJECTID":42,"COD_ISTAT":1001055,"COD_REG":1,"COD_PRO":1,"PRO_COM":1055,"LOC2011":105510001,"LOC":10001,"TIPO_LOC":1,"DENOMINAZI":"Caprie","ALTITUDINE":"374","CENTRO_CL":1,"POPRES":1005,"MASCHI":503,"FAMIGLIE":431,"ABITAZIONI":543,"EDIFICI":357,"Shape_Leng":10350.1055691,"Shape_Area":778702.258978,"PRO_COM_T":"001055"}},
{"type":"Feature","geometry":{"type":"Point","coordinates":[7.9608380848448395,45.39870147172387]},"properties":{"OBJECTID":50,"COD_ISTAT":1001056,"COD_REG":1,"COD_PRO":1,"PRO_COM":1056,"LOC2011":105610001,"LOC":10001,"TIPO_LOC":1,"DENOMINAZI":"Caravino","ALTITUDINE":"257","CENTRO_CL":1,"POPRES":914,"MASCHI":452,"FAMIGLIE":406,"ABITAZIONI":532,"EDIFICI":537,"Shape_Leng":5821.72141647,"Shape_Area":471662.789242,"PRO_COM_T":"001056"}},
{"type":"Feature","geometry":{"type":"Point","coordinates":[7.807000633309108,45.58462441572833]},"properties":{"OBJECTID":53,"COD_ISTAT":1001057,"COD_REG":1,"COD_PRO":1,"PRO_COM":1057,"LOC2011":105710002,"LOC":10002,"TIPO_LOC":1,"DENOMINAZI":"Carema","ALTITUDINE":"349","CENTRO_CL":1,"POPRES":698,"MASCHI":321,"FAMIGLIE":334,"ABITAZIONI":548,"EDIFICI":450,"Shape_Leng":6004.55635089,"Shape_Area":407858.656095,"PRO_COM_T":"001057"}},
{"type":"Feature","geometry":{"type":"Point","coordinates":[7.673342391271623,44.90649570146943]},"properties":{"OBJECTID":55,"COD_ISTAT":1001058,"COD_REG":1,"COD_PRO":1,"PRO_COM":1058,"LOC2011":105810002,"LOC":10002,"TIPO_LOC":1,"DENOMINAZI":"Carignano","ALTITUDINE":"235","CENTRO_CL":1,"POPRES":7322,"MASCHI":3513,"FAMIGLIE":3271,"ABITAZIONI":3429,"EDIFICI":1762,"Shape_Leng":17765.1843168,"Shape_Area":1658481.33298,"PRO_COM_T":"001058"}},
{"type":"Feature","geometry":{"type":"Point","coordinates":[7.370727946992882,44.785890032238264]},"properties":{"OBJECTID":61,"COD_ISTAT":1001070,"COD_REG":1,"COD_PRO":1,"PRO_COM":1070,"LOC2011":107010001,"LOC":10001,"TIPO_LOC":1,"DENOMINAZI":"Cavour","ALTITUDINE":"300","CENTRO_CL":1,"POPRES":2963,"MASCHI":1424,"FAMIGLIE":1313,"ABITAZIONI":1440,"EDIFICI":790,"Shape_Leng":26959.2148038,"Shape_Area":1977174.68228,"PRO_COM_T":"001070"}},
{"type":"Feature","geometry":{"type":"Point","coordinates":[7.469371639118299,45.2634004626212]},"properties":{"OBJECTID":76,"COD_ISTAT":1001113,"COD_REG":1,"COD_PRO":1,"PRO_COM":1113,"LOC2011":111310001,"LOC":10001,"TIPO_LOC":1,"DENOMINAZI":"Germagnano","ALTITUDINE":"485","CENTRO_CL":1,"POPRES":913,"MASCHI":429,"FAMIGLIE":437,"ABITAZIONI":563,"EDIFICI":279,"Shape_Leng":5496.92502009,"Shape_Area":401685.640944,"PRO_COM_T":"001113"}},
{"type":"Feature","geometry":{"type":"Point","coordinates":[7.013773999701138,45.141379564498195]},"properties":{"OBJECTID":86,"COD_ISTAT":1001114,"COD_REG":1,"COD_PRO":1,"PRO_COM":1114,"LOC2011":111410001,"LOC":10001,"TIPO_LOC":1,"DENOMINAZI":"Giaglione","ALTITUDINE":"771","CENTRO_CL":1,"POPRES":563,"MASCHI":271,"FAMIGLIE":252,"ABITAZIONI":486,"EDIFICI":513,"Shape_Leng":9570.87449823,"Shape_Area":369915.375079,"PRO_COM_T":"001114"}},
{"type":"Feature","geometry":{"type":"Point","coordinates":[7.350899224328034,45.04153458101351]},"properties":{"OBJECTID":90,"COD_ISTAT":1001115,"COD_REG":1,"COD_PRO":1,"PRO_COM":1115,"LOC2011":111510001,"LOC":10001,"TIPO_LOC":1,"DENOMINAZI":"Giaveno","ALTITUDINE":"506","CENTRO_CL":1,"POPRES":11540,"MASCHI":5407,"FAMIGLIE":5098,"ABITAZIONI":5650,"EDIFICI":2945,"Shape_Leng":32838.8921304,"Shape_Area":3927473.9374,"PRO_COM_T":"001115"}},
{"type":"Feature","geometry":{"type":"Point","coordinates":[7.015772086318054,45.12643216744905]},"properties":{"OBJECTID":98,"COD_ISTAT":1001117,"COD_REG":1,"COD_PRO":1,"PRO_COM":1117,"LOC2011":111710001,"LOC":10001,"TIPO_LOC":1,"DENOMINAZI":"Gravere","ALTITUDINE":"821","CENTRO_CL":1,"POPRES":608,"MASCHI":315,"FAMIGLIE":299,"ABITAZIONI":1020,"EDIFICI":508,"Shape_Leng":7424.51910625,"Shape_Area":573032.011353,"PRO_COM_T":"001117"}},
{"type":"Feature","geometry":{"type":"Point","coordinates":[7.313165325357855,45.453500521964386]},"properties":{"OBJECTID":100,"COD_ISTAT":1001165,"COD_REG":1,"COD_PRO":1,"PRO_COM":1165,"LOC2011":116510002,"LOC":10002,"TIPO_LOC":1,"DENOMINAZI":"Noasca","ALTITUDINE":"1062","CENTRO_CL":1,"POPRES":66,"MASCHI":30,"FAMIGLIE":41,"ABITAZIONI":112,"EDIFICI":92,"Shape_Leng":2213.63305424,"Shape_Area":73732.068191,"PRO_COM_T":"001165"}},
{"type":"Feature","geometry":{"type":"Point","coordinates":[7.569990306108945,45.24304211957786]},"properties":{"OBJECTID":109,"COD_ISTAT":1001166,"COD_REG":1,"COD_PRO":1,"PRO_COM":1166,"LOC2011":116610002,"LOC":10002,"TIPO_LOC":1,"DENOMINAZI":"Nole","ALTITUDINE":"372","CENTRO_CL":1,"POPRES":5298,"MASCHI":2590,"FAMIGLIE":2213,"ABITAZIONI":2439,"EDIFICI":1122,"Shape_Leng":18104.5646811,"Shape_Area":1801239.29359,"PRO_COM_T":"001166"}},
{"type":"Feature","geometry":{"type":"Point","coordinates":[7.85955347559179,45.536120889011826]},"properties":{"OBJECTID":114,"COD_ISTAT":1001167,"COD_REG":1,"COD_PRO":1,"PRO_COM":1167,"LOC2011":116710001,"LOC":10001,"TIPO_LOC":1,"DENOMINAZI":"Nomaglio","ALTITUDINE":"575","CENTRO_CL":1,"POPRES":290,"MASCHI":141,"FAMIGLIE":158,"ABITAZIONI":245,"EDIFICI":207,"Shape_Leng":2998.90012181,"Shape_Area":154986.275877,"PRO_COM_T":"001167"}},
{"type":"Feature","geometry":{"type":"Point","coordinates":[7.5404000114602425,44.9338746737435]},"properties":{"OBJECTID":115,"COD_ISTAT":1001168,"COD_REG":1,"COD_PRO":1,"PRO_COM":1168,"LOC2011":116810001,"LOC":10001,"TIPO_LOC":1,"DENOMINAZI":"None","ALTITUDINE":"246","CENTRO_CL":1,"POPRES":7507,"MASCHI":3715,"FAMIGLIE":3066,"ABITAZIONI":3176,"EDIFICI":1183,"Shape_Leng":21352.0409968,"Shape_Area":2575682.62189,"PRO_COM_T":"001168"}},
{"type":"Feature","geometry":{"type":"Point","coordinates":[7.719696865417664,45.33258730856218]},"properties":{"OBJECTID":123,"COD_ISTAT":1001217,"COD_REG":1,"COD_PRO":1,"PRO_COM":1217,"LOC2011":121710002,"LOC":10002,"TIPO_LOC":1,"DENOMINAZI":"Rivarolo Canavese","ALTITUDINE":"304","CENTRO_CL":1,"POPRES":10978,"MASCHI":5211,"FAMIGLIE":4790,"ABITAZIONI":5032,"EDIFICI":2028,"Shape_Leng":24591.6970881,"Shape_Area":4250476.2024,"PRO_COM_T":"001217"}},
{"type":"Feature","geometry":{"type":"Point","coordinates":[7.718918352632169,45.249930081472534]},"properties":{"OBJECTID":135,"COD_ISTAT":1001218,"COD_REG":1,"COD_PRO":1,"PRO_COM":1218,"LOC2011":121810001,"LOC":10001,"TIPO_LOC":1,"DENOMINAZI":"Rivarossa","ALTITUDINE":"286","CENTRO_CL":1,"POPRES":919,"MASCHI":462,"FAMIGLIE":385,"ABITAZIONI":496,"EDIFICI":317,"Shape_Leng":7619.44311031,"Shape_Area":296365.628142,"PRO_COM_T":"001218"}},
{"type":"Feature","geometry":{"type":"Point","coordinates":[8.050875295420452,45.34873908603364]},"properties":{"OBJECTID":142,"COD_ISTAT":1002015,"COD_REG":1,"COD_PRO":2,"PRO_COM":2015,"LOC2011":201510001,"LOC":10001,"TIPO_LOC":1,"DENOMINAZI":"Borgo d'Ale","ALTITUDINE":"242","CENTRO_CL":1,"POPRES":2297,"MASCHI":1127,"FAMIGLIE":951,"ABITAZIONI":1130,"EDIFICI":969,"Shape_Leng":15230.6229996,"Shape_Area":1461916.3967,"PRO_COM_T":"002015"}},
{"type":"Feature","geometry":{"type":"Point","coordinates":[8.270300402512433,45.717850084545255]},"properties":{"OBJECTID":146,"COD_ISTAT":1002016,"COD_REG":1,"COD_PRO":2,"PRO_COM":2016,"LOC2011":201610002,"LOC":10002,"TIPO_LOC":1,"DENOMINAZI":"Borgosesia","ALTITUDINE":"354","CENTRO_CL":1,"POPRES":10967,"MASCHI":5096,"FAMIGLIE":5083,"ABITAZIONI":6069,"EDIFICI":2364,"Shape_Leng":33273.6494549,"Shape_Area":4872840.13936,"PRO_COM_T":"002016"}},
{"type":"Feature","geometry":{"type":"Point","coordinates":[8.323253146520248,45.62110577087742]},"properties":{"OBJECTID":164,"COD_ISTAT":1002072,"COD_REG":1,"COD_PRO":2,"PRO_COM":2072,"LOC2011":207210001,"LOC":10001,"TIPO_LOC":1,"DENOMINAZI":"Lozzolo","ALTITUDINE":"320","CENTRO_CL":1,"POPRES":748,"MASCHI":357,"FAMIGLIE":349,"ABITAZIONI":433,"EDIFICI":452,"Shape_Leng":9054.98002611,"Shape_Area":583377.08696,"PRO_COM_T":"002072"}},
{"type":"Feature","geometry":{"type":"Point","coordinates":[8.029963018919311,45.81629874832183]},"properties":{"OBJECTID":165,"COD_ISTAT":1002078,"COD_REG":1,"COD_PRO":2,"PRO_COM":2078,"LOC2011":207810001,"LOC":10001,"TIPO_LOC":1,"DENOMINAZI":"Mollia","ALTITUDINE":"880","CENTRO_CL":1,"POPRES":54,"MASCHI":27,"FAMIGLIE":32,"ABITAZIONI":260,"EDIFICI":64,"Shape_Leng":1169.08666795,"Shape_Area":59710.4226203,"PRO_COM_T":"002078"}},
{"type":"Feature","geometry":{"type":"Point","coordinates":[7.996192510178439,45.33058024174108]},"properties":{"OBJECTID":168,"COD_ISTAT":1002079,"COD_REG":1,"COD_PRO":2,"PRO_COM":2079,"LOC2011":207910001,"LOC":10001,"TIPO_LOC":1,"DENOMINAZI":"Moncrivello","ALTITUDINE":"322","CENTRO_CL":1,"POPRES":1013,"MASCHI":505,"FAMIGLIE":477,"ABITAZIONI":523,"EDIFICI":505,"Shape_Leng":8481.26686568,"Shape_Area":764879.388969,"PRO_COM_T":"002079"}},
{"type":"Feature","geometry":{"type":"Point","coordinates":[7.766295239694973,45.36740715624807]},"properties":{"OBJECTID":173,"COD_ISTAT":1001001,"COD_REG":1,"COD_PRO":1,"PRO_COM":1001,"LOC2011":100110001,"LOC":10001,"TIPO_LOC":1,"DENOMINAZI":"Agliè","ALTITUDINE":"315","CENTRO_CL":1,"POPRES":1607,"MASCHI":764,"FAMIGLIE":796,"ABITAZIONI":884,"EDIFICI":632,"Shape_Leng":14440.0207581,"Shape_Area":1167906.88058,"PRO_COM_T":"001001"}},
{"type":"Feature","geometry":{"type":"Point","coordinates":[7.483855961385413,44.918401127259614]},"properties":{"OBJECTID":182,"COD_ISTAT":1001002,"COD_REG":1,"COD_PRO":1,"PRO_COM":1002,"LOC2011":100210001,"LOC":10001,"TIPO_LOC":1,"DENOMINAZI":"Airasca","ALTITUDINE":"257","CENTRO_CL":1,"POPRES":3583,"MASCHI":1805,"FAMIGLIE":1430,"ABITAZIONI":1481,"EDIFICI":466,"Shape_Leng":9975.2722755,"Shape_Area":855472.077327,"PRO_COM_T":"001002"}},
{"type":"Feature","geometry":{"type":"Point","coordinates":[7.305183680418284,45.31499507553562]},"properties":{"OBJECTID":188,"COD_ISTAT":1001003,"COD_REG":1,"COD_PRO":1,"PRO_COM":1003,"LOC2011":100310001,"LOC":10001,"TIPO_LOC":1,"DENOMINAZI":"Ala di Stura","ALTITUDINE":"1080","CENTRO_CL":1,"POPRES":328,"MASCHI":163,"FAMIGLIE":166,"ABITAZIONI":916,"EDIFICI":451,"Shape_Leng":8724.23918792,"Shape_Area":354938.176127,"PRO_COM_T":"001003"}},
{"type":"Feature","geometry":{"type":"Point","coordinates":[7.947691807576744,45.433728571418946]},"properties":{"OBJECTID":193,"COD_ISTAT":1001004,"COD_REG":1,"COD_PRO":1,"PRO_COM":1004,"LOC2011":100410001,"LOC":10001,"TIPO_LOC":1,"DENOMINAZI":"Albiano d'Ivrea","ALTITUDINE":"230","CENTRO_CL":1,"POPRES":1559,"MASCHI":766,"FAMIGLIE":687,"ABITAZIONI":749,"EDIFICI":489,"Shape_Leng":8218.02634845,"Shape_Area":730449.500753,"PRO_COM_T":"001004"}},
{"type":"Feature","geometry":{"type":"Point","coordinates":[7.77848782507772,45.46049179781652]},"properties":{"OBJECTID":196,"COD_ISTAT":1001005,"COD_REG":1,"COD_PRO":1,"PRO_COM":1005,"LOC2011":100510001,"LOC":10001,"TIPO_LOC":1,"DENOMINAZI":"Alice Superiore","ALTITUDINE":"610","CENTRO_CL":1,"POPRES":352,"MASCHI":173,"FAMIGLIE":188,"ABITAZIONI":315,"EDIFICI":215,"Shape_Leng":8806.76903296,"Shape_Area":404892.171106,"PRO_COM_T":"001005"}},
{"type":"Feature","geometry":{"type":"Point","coordinates":[7.394885912911865,45.11517594449519]},"properties":{"OBJECTID":198,"COD_ISTAT":1001006,"COD_REG":1,"COD_PRO":1,"PRO_COM":1006,"LOC2011":100610001,"LOC":10001,"TIPO_LOC":1,"DENOMINAZI":"Almese-Rivera","ALTITUDINE":"364","CENTRO_CL":1,"POPRES":5009,"MASCHI":2429,"FAMIGLIE":2217,"ABITAZIONI":2571,"EDIFICI":1718,"Shape_Leng":38597.5753283,"Shape_Area":2424686.09007,"PRO_COM_T":"001006"}},
{"type":"Feature","geometry":{"type":"Point","coordinates":[7.578374472791638,45.40913171754606]},"properties":{"OBJECTID":200,"COD_ISTAT":1001007,"COD_REG":1,"COD_PRO":1,"PRO_COM":1007,"LOC2011":100710001,"LOC":10001,"TIPO_LOC":1,"DENOMINAZI":"Alpette","ALTITUDINE":"957","CENTRO_CL":1,"POPRES":239,"MASCHI":117,"FAMIGLIE":140,"ABITAZIONI":552,"EDIFICI":407,"Shape_Leng":2662.02160933,"Shape_Area":203429.448648,"PRO_COM_T":"001007"}},
{"type":"Feature","geometry":{"type":"Point","coordinates":[7.5250354654028415,45.092798003435654]},"properties":{"OBJECTID":202,"COD_ISTAT":1001008,"COD_REG":1,"COD_PRO":1,"PRO_COM":1008,"LOC2011":100810001,"LOC":10001,"TIPO_LOC":1,"DENOMINAZI":"Alpignano","ALTITUDINE":"314","CENTRO_CL":1,"POPRES":16598,"MASCHI":8073,"FAMIGLIE":7206,"ABITAZIONI":7545,"EDIFICI":2217,"Shape_Leng":32158.4786114,"Shape_Area":3786457.39864,"PRO_COM_T":"001008"}},
{"type":"Feature","geometry":{"type":"Point","coordinates":[7.866996754186818,45.0353334651157]},"properties":{"OBJECTID":208,"COD_ISTAT":1001009,"COD_REG":1,"COD_PRO":1,"PRO_COM":1009,"LOC2011":100910001,"LOC":10001,"TIPO_LOC":1,"DENOMINAZI":"Andezeno","ALTITUDINE":"306","CENTRO_CL":1,"POPRES":1744,"MASCHI":857,"FAMIGLIE":716,"ABITAZIONI":883,"EDIFICI":581,"Shape_Leng":13771.9299602,"Shape_Area":1258660.76416,"PRO_COM_T":"001009"}},
{"type":"Feature","geometry":{"type":"Point","coordinates":[7.882648774279227,45.527096793172674]},"properties":{"OBJECTID":211,"COD_ISTAT":1001010,"COD_REG":1,"COD_PRO":1,"PRO_COM":1010,"LOC2011":101010001,"LOC":10001,"TIPO_LOC":1,"DENOMINAZI":"Andrate","ALTITUDINE":"836","CENTRO_CL":1,"POPRES":388,"MASCHI":204,"FAMIGLIE":204,"ABITAZIONI":474,"EDIFICI":290,"Shape_Leng":11701.5741438,"Shape_Area":429916.740705,"PRO_COM_T":"001010"}},
{"type":"Feature","geometry":{"type":"Point","coordinates":[7.223952854638878,44.84364619345604]},"properties":{"OBJECTID":212,"COD_ISTAT":1001011,"COD_REG":1,"COD_PRO":1,"PRO_COM":1011,"LOC2011":101110001,"LOC":10001,"TIPO_LOC":1,"DENOMINAZI":"Angrogna","ALTITUDINE":"782","CENTRO_CL":1,"POPRES":21,"MASCHI":9,"FAMIGLIE":13,"ABITAZIONI":28,"EDIFICI":21,"Shape_Leng":874.267372451,"Shape_Area":16832.9542688,"PRO_COM_T":"001011"}},
{"type":"Feature","geometry":{"type":"Point","coordinates":[7.898053710600822,45.03863988042456]},"properties":{"OBJECTID":222,"COD_ISTAT":1001012,"COD_REG":1,"COD_PRO":1,"PRO_COM":1012,"LOC2011":101210001,"LOC":10001,"TIPO_LOC":1,"DENOMINAZI":"Arignano","ALTITUDINE":"321","CENTRO_CL":1,"POPRES":668,"MASCHI":349,"FAMIGLIE":263,"ABITAZIONI":316,"EDIFICI":293,"Shape_Leng":11948.6767734,"Shape_Area":650322.881156,"PRO_COM_T":"001012"}},
{"type":"Feature","geometry":{"type":"Point","coordinates":[7.400907454739227,45.08215058016336]},"properties":{"OBJECTID":229,"COD_ISTAT":1001013,"COD_REG":1,"COD_PRO":1,"PRO_COM":1013,"LOC2011":101310001,"LOC":10001,"TIPO_LOC":1,"DENOMINAZI":"Avigliana","ALTITUDINE":"383","CENTRO_CL":1,"POPRES":9099,"MASCHI":4430,"FAMIGLIE":3908,"ABITAZIONI":4120,"EDIFICI":1801,"Shape_Leng":38099.8682102,"Shape_Area":4026515.03977,"PRO_COM_T":"001013"}},
{"type":"Feature","geometry":{"type":"Point","coordinates":[7.994539223656122,45.42445477716985]},"properties":{"OBJECTID":246,"COD_ISTAT":1001014,"COD_REG":1,"COD_PRO":1,"PRO_COM":1014,"LOC2011":101410001,"LOC":10001,"TIPO_LOC":1,"DENOMINAZI":"Azeglio","ALTITUDINE":"239","CENTRO_CL":1,"POPRES":1029,"MASCHI":500,"FAMIGLIE":423,"ABITAZIONI":551,"EDIFICI":459,"Shape_Leng":12389.2563012,"Shape_Area":587645.604758,"PRO_COM_T":"001014"}},
{"type":"Feature","geometry":{"type":"Point","coordinates":[7.754611764484133,45.38621617833308]},"properties":{"OBJECTID":253,"COD_ISTAT":1001015,"COD_REG":1,"COD_PRO":1,"PRO_COM":1015,"LOC2011":101510001,"LOC":10001,"TIPO_LOC":1,"DENOMINAZI":"Bairo","ALTITUDINE":"365","CENTRO_CL":1,"POPRES":569,"MASCHI":268,"FAMIGLIE":235,"ABITAZIONI":322,"EDIFICI":223,"Shape_Leng":8514.02859853,"Shape_Area":395611.369587,"PRO_COM_T":"001015"}},
{"type":"Feature","geometry":{"type":"Point","coordinates":[7.518597346884484,45.26873818386157]},"properties":{"OBJECTID":256,"COD_ISTAT":1001016,"COD_REG":1,"COD_PRO":1,"PRO_COM":1016,"LOC2011":101610001,"LOC":10001,"TIPO_LOC":1,"DENOMINAZI":"Balangero","ALTITUDINE":"440","CENTRO_CL":1,"POPRES":2868,"MASCHI":1379,"FAMIGLIE":1235,"ABITAZIONI":1451,"EDIFICI":847,"Shape_Leng":18133.7835798,"Shape_Area":1586978.20131,"PRO_COM_T":"001016"}},
{"type":"Feature","geometry":{"type":"Point","coordinates":[7.7445813911287695,45.410762061707054]},"properties":{"OBJECTID":258,"COD_ISTAT":1001017,"COD_REG":1,"COD_PRO":1,"PRO_COM":1017,"LOC2011":101710001,"LOC":10001,"TIPO_LOC":1,"DENOMINAZI":"Baldissero Canavese","ALTITUDINE":"392","CENTRO_CL":1,"POPRES":200,"MASCHI":96,"FAMIGLIE":109,"ABITAZIONI":159,"EDIFICI":166,"Shape_Leng":1806.14800885,"Shape_Area":115247.177258,"PRO_COM_T":"001017"}},
{"type":"Feature","geometry":{"type":"Point","coordinates":[7.812746864320216,45.067866111253494]},"properties":{"OBJECTID":265,"COD_ISTAT":1001018,"COD_REG":1,"COD_PRO":1,"PRO_COM":1018,"LOC2011":101810001,"LOC":10001,"TIPO_LOC":1,"DENOMINAZI":"Baldissero Torinese","ALTITUDINE":"593","CENTRO_CL":1,"POPRES":1881,"MASCHI":949,"FAMIGLIE":771,"ABITAZIONI":848,"EDIFICI":604,"Shape_Leng":22552.9069874,"Shape_Area":1060353.01526,"PRO_COM_T":"001018"}},
{"type":"Feature","geometry":{"type":"Point","coordinates":[7.2194506152892535,45.301469975983586]},"properties":{"OBJECTID":276,"COD_ISTAT":1001019,"COD_REG":1,"COD_PRO":1,"PRO_COM":1019,"LOC2011":101910001,"LOC":10001,"TIPO_LOC":1,"DENOMINAZI":"Balme","ALTITUDINE":"1432","CENTRO_CL":1,"POPRES":72,"MASCHI":37,"FAMIGLIE":46,"ABITAZIONI":570,"EDIFICI":207,"Shape_Leng":2750.95789895,"Shape_Area":200351.62433,"PRO_COM_T":"001019"}},
{"type":"Feature","geometry":{"type":"Point","coordinates":[7.858052333721819,45.45355438767943]},"properties":{"OBJECTID":279,"COD_ISTAT":1001020,"COD_REG":1,"COD_PRO":1,"PRO_COM":1020,"LOC2011":102010001,"LOC":10001,"TIPO_LOC":1,"DENOMINAZI":"Banchette","ALTITUDINE":"266","CENTRO_CL":1,"POPRES":3273,"MASCHI":1533,"FAMIGLIE":1591,"ABITAZIONI":1786,"EDIFICI":385,"Shape_Leng":7056.88586982,"Shape_Area":864992.38597,"PRO_COM_T":"001020"}},
{"type":"Feature","geometry":{"type":"Point","coordinates":[7.629931442788374,45.291263392581065]},"properties":{"OBJECTID":280,"COD_ISTAT":1001021,"COD_REG":1,"COD_PRO":1,"PRO_COM":1021,"LOC2011":102110001,"LOC":10001,"TIPO_LOC":1,"DENOMINAZI":"Barbania","ALTITUDINE":"362","CENTRO_CL":1,"POPRES":875,"MASCHI":427,"FAMIGLIE":419,"ABITAZIONI":557,"EDIFICI":397,"Shape_Leng":10363.2930367,"Shape_Area":511385.034586,"PRO_COM_T":"001021"}},
{"type":"Feature","geometry":{"type":"Point","coordinates":[6.701687169672541,45.077133361128105]},"properties":{"OBJECTID":290,"COD_ISTAT":1001022,"COD_REG":1,"COD_PRO":1,"PRO_COM":1022,"LOC2011":102210001,"LOC":10001,"TIPO_LOC":1,"DENOMINAZI":"Bardonecchia","ALTITUDINE":"1312","CENTRO_CL":1,"POPRES":2962,"MASCHI":1445,"FAMIGLIE":1559,"ABITAZIONI":9584,"EDIFICI":1197,"Shape_Leng":15564.3262879,"Shape_Area":2169568.21454,"PRO_COM_T":"001022"}},
{"type":"Feature","geometry":{"type":"Point","coordinates":[7.87237634114598,45.32616864049527]},"properties":{"OBJECTID":300,"COD_ISTAT":1001023,"COD_REG":1,"COD_PRO":1,"PRO_COM":1023,"LOC2011":102310001,"LOC":10001,"TIPO_LOC":1,"DENOMINAZI":"Barone Canavese","ALTITUDINE":"325","CENTRO_CL":1,"POPRES":547,"MASCHI":276,"FAMIGLIE":248,"ABITAZIONI":313,"EDIFICI":280,"Shape_Leng":4577.1218231,"Shape_Area":288074.285154,"PRO_COM_T":"001023"}},
{"type":"Feature","geometry":{"type":"Point","coordinates":[7.5867332660004045,45.02553757475463]},"properties":{"OBJECTID":301,"COD_ISTAT":1001024,"COD_REG":1,"COD_PRO":1,"PRO_COM":1024,"LOC2011":102410001,"LOC":10001,"TIPO_LOC":1,"DENOMINAZI":"Beinasco","ALTITUDINE":"265","CENTRO_CL":1,"POPRES":6469,"MASCHI":3114,"FAMIGLIE":2692,"ABITAZIONI":2700,"EDIFICI":607,"Shape_Leng":6859.31887651,"Shape_Area":1646774.89778,"PRO_COM_T":"001024"}},
{"type":"Feature","geometry":{"type":"Point","coordinates":[7.2906556817447825,44.79779562990095]},"properties":{"OBJECTID":306,"COD_ISTAT":1001025,"COD_REG":1,"COD_PRO":1,"PRO_COM":1025,"LOC2011":102510001,"LOC":10001,"TIPO_LOC":1,"DENOMINAZI":"Bibiana","ALTITUDINE":"406","CENTRO_CL":1,"POPRES":2360,"MASCHI":1128,"FAMIGLIE":1017,"ABITAZIONI":1144,"EDIFICI":586,"Shape_Leng":22575.201121,"Shape_Area":1501825.16379,"PRO_COM_T":"001025"}},
{"type":"Feature","geometry":{"type":"Point","coordinates":[7.1173332889854475,44.80788966263208]},"properties":{"OBJECTID":309,"COD_ISTAT":1001026,"COD_REG":1,"COD_PRO":1,"PRO_COM":1026,"LOC2011":102610001,"LOC":10001,"TIPO_LOC":1,"DENOMINAZI":"Bobbio Pellice","ALTITUDINE":"732","CENTRO_CL":1,"POPRES":409,"MASCHI":195,"FAMIGLIE":215,"ABITAZIONI":595,"EDIFICI":290,"Shape_Leng":5548.21775099,"Shape_Area":290893.55526,"PRO_COM_T":"001026"}},
{"type":"Feature","geometry":{"type":"Point","coordinates":[7.9386461617573065,45.470972090327535]},"properties":{"OBJECTID":316,"COD_ISTAT":1001027,"COD_REG":1,"COD_PRO":1,"PRO_COM":1027,"LOC2011":102710001,"LOC":10001,"TIPO_LOC":1,"DENOMINAZI":"Bollengo","ALTITUDINE":"255","CENTRO_CL":1,"POPRES":1280,"MASCHI":646,"FAMIGLIE":592,"ABITAZIONI":662,"EDIFICI":531,"Shape_Leng":11741.396248,"Shape_Area":870124.494729,"PRO_COM_T":"001027"}},
{"type":"Feature","geometry":{"type":"Point","coordinates":[7.655592254116438,45.151805315782035]},"properties":{"OBJECTID":323,"COD_ISTAT":1001028,"COD_REG":1,"COD_PRO":1,"PRO_COM":1028,"LOC2011":102810001,"LOC":10001,"TIPO_LOC":1,"DENOMINAZI":"Borgaro Torinese","ALTITUDINE":"254","CENTRO_CL":1,"POPRES":11291,"MASCHI":5502,"FAMIGLIE":4507,"ABITAZIONI":4610,"EDIFICI":833,"Shape_Leng":10950.1917486,"Shape_Area":1893498.31468,"PRO_COM_T":"001028"}},
{"type":"Feature","geometry":{"type":"Point","coordinates":[7.668605170230155,45.41639974532604]},"properties":{"OBJECTID":329,"COD_ISTAT":1001029,"COD_REG":1,"COD_PRO":1,"PRO_COM":1029,"LOC2011":102910001,"LOC":10001,"TIPO_LOC":1,"DENOMINAZI":"Borgiallo","ALTITUDINE":"540","CENTRO_CL":1,"POPRES":230,"MASCHI":117,"FAMIGLIE":113,"ABITAZIONI":136,"EDIFICI":152,"Shape_Leng":5257.20421845,"Shape_Area":166067.639418,"PRO_COM_T":"001029"}},
{"type":"Feature","geometry":{"type":"Point","coordinates":[7.857462685785881,45.51332295845141]},"properties":{"OBJECTID":335,"COD_ISTAT":1001030,"COD_REG":1,"COD_PRO":1,"PRO_COM":1030,"LOC2011":103010002,"LOC":10002,"TIPO_LOC":1,"DENOMINAZI":"Borgofranco d'Ivrea","ALTITUDINE":"253","CENTRO_CL":1,"POPRES":2918,"MASCHI":1404,"FAMIGLIE":1316,"ABITAZIONI":1630,"EDIFICI":831,"Shape_Leng":18020.9303172,"Shape_Area":1505348.5708,"PRO_COM_T":"001030"}},
{"type":"Feature","geometry":{"type":"Point","coordinates":[7.988079552937917,45.362065945946995]},"properties":{"OBJECTID":340,"COD_ISTAT":1001031,"COD_REG":1,"COD_PRO":1,"PRO_COM":1031,"LOC2011":103110001,"LOC":10001,"TIPO_LOC":1,"DENOMINAZI":"Borgomasino","ALTITUDINE":"260","CENTRO_CL":1,"POPRES":738,"MASCHI":341,"FAMIGLIE":352,"ABITAZIONI":470,"EDIFICI":405,"Shape_Leng":8390.90135848,"Shape_Area":700370.180247,"PRO_COM_T":"001031"}},
{"type":"Feature","geometry":{"type":"Point","coordinates":[7.241717835383147,45.12166753675883]},"properties":{"OBJECTID":341,"COD_ISTAT":1001032,"COD_REG":1,"COD_PRO":1,"PRO_COM":1032,"LOC2011":103210001,"LOC":10001,"TIPO_LOC":1,"DENOMINAZI":"Borgone Susa","ALTITUDINE":"394","CENTRO_CL":1,"POPRES":1857,"MASCHI":924,"FAMIGLIE":877,"ABITAZIONI":1081,"EDIFICI":622,"Shape_Leng":10186.2593848,"Shape_Area":1159594.66394,"PRO_COM_T":"001032"}},
{"type":"Feature","geometry":{"type":"Point","coordinates":[7.764640703720696,45.2660586764611]},"properties":{"OBJECTID":344,"COD_ISTAT":1001033,"COD_REG":1,"COD_PRO":1,"PRO_COM":1033,"LOC2011":103310001,"LOC":10001,"TIPO_LOC":1,"DENOMINAZI":"Bosconero","ALTITUDINE":"240","CENTRO_CL":1,"POPRES":2784,"MASCHI":1362,"FAMIGLIE":1127,"ABITAZIONI":1176,"EDIFICI":718,"Shape_Leng":16004.6258013,"Shape_Area":1554185.82612,"PRO_COM_T":"001033"}},
{"type":"Feature","geometry":{"type":"Point","coordinates":[7.836039730943123,45.17925707722651]},"properties":{"OBJECTID":347,"COD_ISTAT":1001034,"COD_REG":1,"COD_PRO":1,"PRO_COM":1034,"LOC2011":103410001,"LOC":10001,"TIPO_LOC":1,"DENOMINAZI":"Brandizzo","ALTITUDINE":"187","CENTRO_CL":1,"POPRES":8373,"MASCHI":4099,"FAMIGLIE":3504,"ABITAZIONI":3644,"EDIFICI":1287,"Shape_Leng":14582.1482515,"Shape_Area":1921353.00395,"PRO_COM_T":"001034"}},
{"type":"Feature","geometry":{"type":"Point","coordinates":[7.304994747129231,44.8213029269636]},"properties":{"OBJECTID":348,"COD_ISTAT":1001035,"COD_REG":1,"COD_PRO":1,"PRO_COM":1035,"LOC2011":103510001,"LOC":10001,"TIPO_LOC":1,"DENOMINAZI":"Bricherasio","ALTITUDINE":"375","CENTRO_CL":1,"POPRES":2694,"MASCHI":1319,"FAMIGLIE":1195,"ABITAZIONI":1356,"EDIFICI":743,"Shape_Leng":15869.9430932,"Shape_Area":1510244.2567,"PRO_COM_T":"001035"}},
{"type":"Feature","geometry":{"type":"Point","coordinates":[7.803547384334525,45.49356654251117]},"properties":{"OBJECTID":371,"COD_ISTAT":1001036,"COD_REG":1,"COD_PRO":1,"PRO_COM":1036,"LOC2011":103610001,"LOC":10001,"TIPO_LOC":1,"DENOMINAZI":"Brosso","ALTITUDINE":"797","CENTRO_CL":1,"POPRES":410,"MASCHI":185,"FAMIGLIE":216,"ABITAZIONI":379,"EDIFICI":260,"Shape_Leng":6979.46821793,"Shape_Area":228895.442821,"PRO_COM_T":"001036"}},
{"type":"Feature","geometry":{"type":"Point","coordinates":[8.071843448908842,45.117421986413184]},"properties":{"OBJECTID":372,"COD_ISTAT":1001037,"COD_REG":1,"COD_PRO":1,"PRO_COM":1037,"LOC2011":103710001,"LOC":10001,"TIPO_LOC":1,"DENOMINAZI":"Grisoglio","ALTITUDINE":"360","CENTRO_CL":1,"POPRES":42,"MASCHI":24,"FAMIGLIE":20,"ABITAZIONI":29,"EDIFICI":22,"Shape_Leng":1375.44205194,"Shape_Area":52741.4977921,"PRO_COM_T":"001037"}},
{"type":"Feature","geometry":{"type":"Point","coordinates":[7.477514905831356,45.015355831190874]},"properties":{"OBJECTID":380,"COD_ISTAT":1001038,"COD_REG":1,"COD_PRO":1,"PRO_COM":1038,"LOC2011":103810001,"LOC":10001,"TIPO_LOC":1,"DENOMINAZI":"Bruino","ALTITUDINE":"320","CENTRO_CL":1,"POPRES":8070,"MASCHI":4017,"FAMIGLIE":3173,"ABITAZIONI":3335,"EDIFICI":1664,"Shape_Leng":15690.2532396,"Shape_Area":3512426.97239,"PRO_COM_T":"001038"}},
{"type":"Feature","geometry":{"type":"Point","coordinates":[8.059421677186993,45.155173843314934]},"properties":{"OBJECTID":382,"COD_ISTAT":1001039,"COD_REG":1,"COD_PRO":1,"PRO_COM":1039,"LOC2011":103910001,"LOC":10001,"TIPO_LOC":1,"DENOMINAZI":"Brusasco","ALTITUDINE":"170","CENTRO_CL":1,"POPRES":1161,"MASCHI":556,"FAMIGLIE":487,"ABITAZIONI":554,"EDIFICI":401,"Shape_Leng":7962.19050062,"Shape_Area":497261.89621,"PRO_COM_T":"001039"}},
{"type":"Feature","geometry":{"type":"Point","coordinates":[7.194201973667069,45.141666813133234]},"properties":{"OBJECTID":392,"COD_ISTAT":1001040,"COD_REG":1,"COD_PRO":1,"PRO_COM":1040,"LOC2011":104010001,"LOC":10001,"TIPO_LOC":1,"DENOMINAZI":"Bruzolo","ALTITUDINE":"455","CENTRO_CL":1,"POPRES":1483,"MASCHI":723,"FAMIGLIE":666,"ABITAZIONI":829,"EDIFICI":619,"Shape_Leng":13144.4329331,"Shape_Area":708729.511888,"PRO_COM_T":"001040"}},
{"type":"Feature","geometry":{"type":"Point","coordinates":[7.411864428026865,44.8729645046745]},"properties":{"OBJECTID":395,"COD_ISTAT":1001041,"COD_REG":1,"COD_PRO":1,"PRO_COM":1041,"LOC2011":104110002,"LOC":10002,"TIPO_LOC":1,"DENOMINAZI":"Buriasco","ALTITUDINE":"301","CENTRO_CL":1,"POPRES":738,"MASCHI":351,"FAMIGLIE":281,"ABITAZIONI":330,"EDIFICI":187,"Shape_Leng":6898.80023526,"Shape_Area":521730.544698,"PRO_COM_T":"001041"}},
{"type":"Feature","geometry":{"type":"Point","coordinates":[7.933089436119495,45.483238319185645]},"properties":{"OBJECTID":402,"COD_ISTAT":1001042,"COD_REG":1,"COD_PRO":1,"PRO_COM":1042,"LOC2011":104210001,"LOC":10001,"TIPO_LOC":1,"DENOMINAZI":"Burolo","ALTITUDINE":"276","CENTRO_CL":1,"POPRES":871,"MASCHI":397,"FAMIGLIE":383,"ABITAZIONI":468,"EDIFICI":383,"Shape_Leng":7099.49452185,"Shape_Area":483422.284769,"PRO_COM_T":"001042"}},
{"type":"Feature","geometry":{"type":"Point","coordinates":[7.657244549910899,45.330655265648076]},"properties":{"OBJECTID":408,"COD_ISTAT":1001043,"COD_REG":1,"COD_PRO":1,"PRO_COM":1043,"LOC2011":104310001,"LOC":10001,"TIPO_LOC":1,"DENOMINAZI":"Busano","ALTITUDINE":"317","CENTRO_CL":1,"POPRES":1467,"MASCHI":721,"FAMIGLIE":609,"ABITAZIONI":615,"EDIFICI":426,"Shape_Leng":6934.25879597,"Shape_Area":670705.307251,"PRO_COM_T":"001043"}},
{"type":"Feature","geometry":{"type":"Point","coordinates":[7.147652020488515,45.13840182266488]},"properties":{"OBJECTID":412,"COD_ISTAT":1001044,"COD_REG":1,"COD_PRO":1,"PRO_COM":1044,"LOC2011":104410001,"LOC":10001,"TIPO_LOC":1,"DENOMINAZI":"Bussoleno","ALTITUDINE":"443","CENTRO_CL":1,"POPRES":5396,"MASCHI":2536,"FAMIGLIE":2420,"ABITAZIONI":2732,"EDIFICI":1519,"Shape_Leng":27303.0033318,"Shape_Area":2042144.56041,"PRO_COM_T":"001044"}},
{"type":"Feature","geometry":{"type":"Point","coordinates":[7.433820408591399,45.06859811190739]},"properties":{"OBJECTID":421,"COD_ISTAT":1001045,"COD_REG":1,"COD_PRO":1,"PRO_COM":1045,"LOC2011":104510001,"LOC":10001,"TIPO_LOC":1,"DENOMINAZI":"Buttigliera Alta","ALTITUDINE":"414","CENTRO_CL":1,"POPRES":3443,"MASCHI":1723,"FAMIGLIE":1457,"ABITAZIONI":1615,"EDIFICI":879,"Shape_Leng":23728.9133689,"Shape_Area":1675255.61619,"PRO_COM_T":"001045"}},
{"type":"Feature","geometry":{"type":"Point","coordinates":[7.517628993777509,45.24575925326327]},"properties":{"OBJECTID":425,"COD_ISTAT":1001046,"COD_REG":1,"COD_PRO":1,"PRO_COM":1046,"LOC2011":104610001,"LOC":10001,"TIPO_LOC":1,"DENOMINAZI":"Cafasse","ALTITUDINE":"395","CENTRO_CL":1,"POPRES":2328,"MASCHI":1138,"FAMIGLIE":1006,"ABITAZIONI":1156,"EDIFICI":742,"Shape_Leng":16353.4223398,"Shape_Area":1419274.95215,"PRO_COM_T":"001046"}},
{"type":"Feature","geometry":{"type":"Point","coordinates":[8.563091639575076,44.60289508997006]},"properties":{"OBJECTID":429,"COD_ISTAT":1006044,"COD_REG":1,"COD_PRO":6,"PRO_COM":6044,"LOC2011":604410002,"LOC":10002,"TIPO_LOC":1,"DENOMINAZI":"Cassinelle-Concentrico","ALTITUDINE":"360","CENTRO_CL":1,"POPRES":425,"MASCHI":211,"FAMIGLIE":211,"ABITAZIONI":385,"EDIFICI":278,"Shape_Leng":6537.79712726,"Shape_Area":241030.12019,"PRO_COM_T":"006044"}},
{"type":"Feature","geometry":{"type":"Point","coordinates":[8.930281274608223,44.798616569744155]},"properties":{"OBJECTID":432,"COD_ISTAT":1006045,"COD_REG":1,"COD_PRO":6,"PRO_COM":6045,"LOC2011":604510001,"LOC":10001,"TIPO_LOC":1,"DENOMINAZI":"Castellania","ALTITUDINE":"400","CENTRO_CL":1,"POPRES":34,"MASCHI":16,"FAMIGLIE":18,"ABITAZIONI":25,"EDIFICI":31,"Shape_Leng":1038.03290061,"Shape_Area":36153.7117003,"PRO_COM_T":"006045"}},
{"type":"Feature","geometry":{"type":"Point","coordinates":[8.948763010322585,44.90496529910574]},"properties":{"OBJECTID":435,"COD_ISTAT":1006046,"COD_REG":1,"COD_PRO":6,"PRO_COM":6046,"LOC2011":604610001,"LOC":10001,"TIPO_LOC":1,"DENOMINAZI":"Castellar Guidobono","ALTITUDINE":"144","CENTRO_CL":1,"POPRES":393,"MASCHI":203,"FAMIGLIE":179,"ABITAZIONI":213,"EDIFICI":165,"Shape_Leng":3462.56854961,"Shape_Area":210091.13446,"PRO_COM_T":"006046"}},
{"type":"Feature","geometry":{"type":"Point","coordinates":[8.577744443380494,44.843950997854975]},"properties":{"OBJECTID":437,"COD_ISTAT":1006047,"COD_REG":1,"COD_PRO":6,"PRO_COM":6047,"LOC2011":604710001,"LOC":10001,"TIPO_LOC":1,"DENOMINAZI":"Castellazzo Bormida","ALTITUDINE":"104","CENTRO_CL":1,"POPRES":4073,"MASCHI":1957,"FAMIGLIE":1791,"ABITAZIONI":1836,"EDIFICI":1322,"Shape_Leng":12767.3957038,"Shape_Area":1549912.31365,"PRO_COM_T":"006047"}},
{"type":"Feature","geometry":{"type":"Point","coordinates":[8.394337195012584,44.6255856245736]},"properties":{"OBJECTID":443,"COD_ISTAT":1006048,"COD_REG":1,"COD_PRO":6,"PRO_COM":6048,"LOC2011":604810001,"LOC":10001,"TIPO_LOC":1,"DENOMINAZI":"Castelletto d'Erro","ALTITUDINE":"544","CENTRO_CL":1,"POPRES":22,"MASCHI":8,"FAMIGLIE":12,"ABITAZIONI":23,"EDIFICI":27,"Shape_Leng":1023.19427838,"Shape_Area":27813.5153415,"PRO_COM_T":"006048"}},
{"type":"Feature","geometry":{"type":"Point","coordinates":[8.605540034969072,45.61825916601656]},"properties":{"OBJECTID":445,"COD_ISTAT":1003097,"COD_REG":1,"COD_PRO":3,"PRO_COM":3097,"LOC2011":309710001,"LOC":10001,"TIPO_LOC":1,"DENOMINAZI":"Mezzomerico","ALTITUDINE":"266","CENTRO_CL":1,"POPRES":1129,"MASCHI":571,"FAMIGLIE":477,"ABITAZIONI":527,"EDIFICI":407,"Shape_Leng":7851.98128137,"Shape_Area":615888.648799,"PRO_COM_T":"003097"}},
{"type":"Feature","geometry":{"type":"Point","coordinates":[8.429072520940705,45.800776519025966]},"properties":{"OBJECTID":448,"COD_ISTAT":1003098,"COD_REG":1,"COD_PRO":3,"PRO_COM":3098,"LOC2011":309810002,"LOC":10002,"TIPO_LOC":1,"DENOMINAZI":"Miasino","ALTITUDINE":"479","CENTRO_CL":1,"POPRES":398,"MASCHI":164,"FAMIGLIE":162,"ABITAZIONI":363,"EDIFICI":203,"Shape_Leng":4178.61624217,"Shape_Area":389671.242122,"PRO_COM_T":"003098"}},
{"type":"Feature","geometry":{"type":"Point","coordinates":[7.493442376799157,44.3362674457248]},"properties":{"OBJECTID":452,"COD_ISTAT":1004025,"COD_REG":1,"COD_PRO":4,"PRO_COM":4025,"LOC2011":402510002,"LOC":10002,"TIPO_LOC":1,"DENOMINAZI":"Borgo San Dalmazzo","ALTITUDINE":"636","CENTRO_CL":1,"POPRES":11128,"MASCHI":5367,"FAMIGLIE":4816,"ABITAZIONI":5598,"EDIFICI":2179,"Shape_Leng":18955.4329777,"Shape_Area":3757107.09831,"PRO_COM_T":"004025"}},
{"type":"Feature","geometry":{"type":"Point","coordinates":[8.147602737678099,44.601923999151595]},"properties":{"OBJECTID":460,"COD_ISTAT":1004026,"COD_REG":1,"COD_PRO":4,"PRO_COM":4026,"LOC2011":402610001,"LOC":10001,"TIPO_LOC":1,"DENOMINAZI":"Bosia","ALTITUDINE":"484","CENTRO_CL":1,"POPRES":33,"MASCHI":15,"FAMIGLIE":16,"ABITAZIONI":27,"EDIFICI":32,"Shape_Leng":1363.50583379,"Shape_Area":36951.4302018,"PRO_COM_T":"004026"}},
{"type":"Feature","geometry":{"type":"Point","coordinates":[8.049762538023549,44.5258284949611]},"properties":{"OBJECTID":462,"COD_ISTAT":1004027,"COD_REG":1,"COD_PRO":4,"PRO_COM":4027,"LOC2011":402710001,"LOC":10001,"TIPO_LOC":1,"DENOMINAZI":"Bossolasco","ALTITUDINE":"757","CENTRO_CL":1,"POPRES":523,"MASCHI":255,"FAMIGLIE":270,"ABITAZIONI":613,"EDIFICI":296,"Shape_Leng":9131.37139606,"Shape_Area":665825.725868,"PRO_COM_T":"004027"}},
{"type":"Feature","geometry":{"type":"Point","coordinates":[7.5577814931086245,44.330023009616994]},"properties":{"OBJECTID":465,"COD_ISTAT":1004028,"COD_REG":1,"COD_PRO":4,"PRO_COM":4028,"LOC2011":402810001,"LOC":10001,"TIPO_LOC":1,"DENOMINAZI":"Boves","ALTITUDINE":"590","CENTRO_CL":1,"POPRES":7089,"MASCHI":3467,"FAMIGLIE":2958,"ABITAZIONI":3781,"EDIFICI":2032,"Shape_Leng":28511.5649118,"Shape_Area":3411537.30738,"PRO_COM_T":"004028"}},
{"type":"Feature","geometry":{"type":"Point","coordinates":[7.29287017813273,45.22831425863481]},"properties":{"OBJECTID":477,"COD_ISTAT":1001131,"COD_REG":1,"COD_PRO":1,"PRO_COM":1131,"LOC2011":113110001,"LOC":10001,"TIPO_LOC":1,"DENOMINAZI":"Lemie","ALTITUDINE":"957","CENTRO_CL":1,"POPRES":71,"MASCHI":34,"FAMIGLIE":41,"ABITAZIONI":287,"EDIFICI":193,"Shape_Leng":2267.39326048,"Shape_Area":93494.2829844,"PRO_COM_T":"001131"}},
{"type":"Feature","geometry":{"type":"Point","coordinates":[7.81389520120282,45.47623631737541]},"properties":{"OBJECTID":485,"COD_ISTAT":1001132,"COD_REG":1,"COD_PRO":1,"PRO_COM":1132,"LOC2011":113210002,"LOC":10002,"TIPO_LOC":1,"DENOMINAZI":"Lessolo","ALTITUDINE":"277","CENTRO_CL":1,"POPRES":1443,"MASCHI":696,"FAMIGLIE":664,"ABITAZIONI":876,"EDIFICI":650,"Shape_Leng":15497.6045162,"Shape_Area":898448.471668,"PRO_COM_T":"001132"}},
{"type":"Feature","geometry":{"type":"Point","coordinates":[7.607095554680161,45.31760539014735]},"properties":{"OBJECTID":487,"COD_ISTAT":1001133,"COD_REG":1,"COD_PRO":1,"PRO_COM":1133,"LOC2011":113310001,"LOC":10001,"TIPO_LOC":1,"DENOMINAZI":"Levone","ALTITUDINE":"353","CENTRO_CL":1,"POPRES":415,"MASCHI":212,"FAMIGLIE":212,"ABITAZIONI":340,"EDIFICI":384,"Shape_Leng":5415.19789708,"Shape_Area":378241.065766,"PRO_COM_T":"001133"}},
{"type":"Feature","geometry":{"type":"Point","coordinates":[7.456135560975447,45.413852166655005]},"properties":{"OBJECTID":493,"COD_ISTAT":1001134,"COD_REG":1,"COD_PRO":1,"PRO_COM":1134,"LOC2011":113410004,"LOC":10004,"TIPO_LOC":1,"DENOMINAZI":"Locana","ALTITUDINE":"613","CENTRO_CL":1,"POPRES":740,"MASCHI":362,"FAMIGLIE":375,"ABITAZIONI":1059,"EDIFICI":448,"Shape_Leng":12071.1999253,"Shape_Area":587045.539328,"PRO_COM_T":"001134"}},
{"type":"Feature","geometry":{"type":"Point","coordinates":[7.153496499032352,44.80888766966551]},"properties":{"OBJECTID":502,"COD_ISTAT":1001306,"COD_REG":1,"COD_PRO":1,"PRO_COM":1306,"LOC2011":130610002,"LOC":10002,"TIPO_LOC":1,"DENOMINAZI":"Villar Pellice","ALTITUDINE":"664","CENTRO_CL":1,"POPRES":809,"MASCHI":395,"FAMIGLIE":385,"ABITAZIONI":595,"EDIFICI":552,"Shape_Leng":16466.3459371,"Shape_Area":989488.490891,"PRO_COM_T":"001306"}},
{"type":"Feature","geometry":{"type":"Point","coordinates":[7.249999232658075,44.91794915295455]},"properties":{"OBJECTID":505,"COD_ISTAT":1001307,"COD_REG":1,"COD_PRO":1,"PRO_COM":1307,"LOC2011":130710001,"LOC":10001,"TIPO_LOC":1,"DENOMINAZI":"Villar Perosa","ALTITUDINE":"530","CENTRO_CL":1,"POPRES":3930,"MASCHI":1905,"FAMIGLIE":1807,"ABITAZIONI":1948,"EDIFICI":806,"Shape_Leng":16017.180727,"Shape_Area":1764922.99051,"PRO_COM_T":"001307"}},
{"type":"Feature","geometry":{"type":"Point","coordinates":[7.556585224211054,45.25482579902048]},"properties":{"OBJECTID":514,"COD_ISTAT":1001119,"COD_REG":1,"COD_PRO":1,"PRO_COM":1119,"LOC2011":111910001,"LOC":10001,"TIPO_LOC":1,"DENOMINAZI":"Grosso","ALTITUDINE":"394","CENTRO_CL":1,"POPRES":818,"MASCHI":388,"FAMIGLIE":358,"ABITAZIONI":390,"EDIFICI":335,"Shape_Leng":6326.55333202,"Shape_Area":496433.046676,"PRO_COM_T":"001119"}},
{"type":"Feature","geometry":{"type":"Point","coordinates":[7.580051255533231,45.06336720900393]},"properties":{"OBJECTID":518,"COD_ISTAT":1001120,"COD_REG":1,"COD_PRO":1,"PRO_COM":1120,"LOC2011":112010002,"LOC":10002,"TIPO_LOC":1,"DENOMINAZI":"Grugliasco","ALTITUDINE":"293","CENTRO_CL":1,"POPRES":33100,"MASCHI":15927,"FAMIGLIE":14285,"ABITAZIONI":14767,"EDIFICI":3004,"Shape_Leng":32285.5331286,"Shape_Area":7102175.46136,"PRO_COM_T":"001120"}},
{"type":"Feature","geometry":{"type":"Point","coordinates":[7.57131427358197,45.466701265796026]},"properties":{"OBJECTID":520,"COD_ISTAT":1001121,"COD_REG":1,"COD_PRO":1,"PRO_COM":1121,"LOC2011":112110001,"LOC":10001,"TIPO_LOC":1,"DENOMINAZI":"Ingria","ALTITUDINE":"816","CENTRO_CL":1,"POPRES":11,"MASCHI":4,"FAMIGLIE":9,"ABITAZIONI":46,"EDIFICI":45,"Shape_Leng":913.567734762,"Shape_Area":18910.7882313,"PRO_COM_T":"001121"}},
{"type":"Feature","geometry":{"type":"Point","coordinates":[9.028412865074257,44.677568707949476]},"properties":{"OBJECTID":524,"COD_ISTAT":1006146,"COD_REG":1,"COD_PRO":6,"PRO_COM":6146,"LOC2011":614610001,"LOC":10001,"TIPO_LOC":1,"DENOMINAZI":"Roccaforte Ligure","ALTITUDINE":"704","CENTRO_CL":1,"POPRES":25,"MASCHI":17,"FAMIGLIE":20,"ABITAZIONI":51,"EDIFICI":41,"Shape_Leng":1184.93672596,"Shape_Area":33446.9622847,"PRO_COM_T":"006146"}},
{"type":"Feature","geometry":{"type":"Point","coordinates":[8.971788640739902,45.6598322500904]},"properties":{"OBJECTID":528,"COD_ISTAT":3012050,"COD_REG":3,"COD_PRO":12,"PRO_COM":12050,"LOC2011":1205010001,"LOC":10001,"TIPO_LOC":1,"DENOMINAZI":"Cislago","ALTITUDINE":"237","CENTRO_CL":1,"POPRES":8997,"MASCHI":4449,"FAMIGLIE":3644,"ABITAZIONI":3865,"EDIFICI":1497,"Shape_Leng":17054.3572707,"Shape_Area":2153680.86609,"PRO_COM_T":"012050"}},
{"type":"Feature","geometry":{"type":"Point","coordinates":[8.662901756431372,45.89677933195408]},"properties":{"OBJECTID":533,"COD_ISTAT":3012051,"COD_REG":3,"COD_PRO":12,"PRO_COM":12051,"LOC2011":1205110001,"LOC":10001,"TIPO_LOC":1,"DENOMINAZI":"Cittiglio","ALTITUDINE":"254","CENTRO_CL":1,"POPRES":3861,"MASCHI":1897,"FAMIGLIE":1668,"ABITAZIONI":1873,"EDIFICI":1096,"Shape_Leng":15141.9764246,"Shape_Area":1902701.78882,"PRO_COM_T":"012051"}},
{"type":"Feature","geometry":{"type":"Point","coordinates":[8.93054658543997,45.86364903380633]},"properties":{"OBJECTID":537,"COD_ISTAT":3012052,"COD_REG":3,"COD_PRO":12,"PRO_COM":12052,"LOC2011":1205210001,"LOC":10001,"TIPO_LOC":1,"DENOMINAZI":"Clivio","ALTITUDINE":"468","CENTRO_CL":1,"POPRES":1607,"MASCHI":776,"FAMIGLIE":670,"ABITAZIONI":757,"EDIFICI":466,"Shape_Leng":7535.48350794,"Shape_Area":611609.696365,"PRO_COM_T":"012052"}},
{"type":"Feature","geometry":{"type":"Point","coordinates":[7.3628091221249585,45.09784535512736]},"properties":{"OBJECTID":544,"COD_ISTAT":1001255,"COD_REG":1,"COD_PRO":1,"PRO_COM":1255,"LOC2011":125510002,"LOC":10002,"TIPO_LOC":1,"DENOMINAZI":"Sant'Ambrogio di Torino","ALTITUDINE":"356","CENTRO_CL":1,"POPRES":4688,"MASCHI":2314,"FAMIGLIE":1958,"ABITAZIONI":2117,"EDIFICI":1248,"Shape_Leng":19133.4623995,"Shape_Area":1926328.0796,"PRO_COM_T":"001255"}},
{"type":"Feature","geometry":{"type":"Point","coordinates":[7.27308094638025,45.10799917681044]},"properties":{"OBJECTID":547,"COD_ISTAT":1001256,"COD_REG":1,"COD_PRO":1,"PRO_COM":1256,"LOC2011":125610001,"LOC":10001,"TIPO_LOC":1,"DENOMINAZI":"Sant'Antonino di Susa","ALTITUDINE":"380","CENTRO_CL":1,"POPRES":4156,"MASCHI":1970,"FAMIGLIE":1799,"ABITAZIONI":2021,"EDIFICI":1063,"Shape_Leng":11427.4081805,"Shape_Area":1570453.18029,"PRO_COM_T":"001256"}},
{"type":"Feature","geometry":{"type":"Point","coordinates":[7.780964834542395,44.95390111870424]},"properties":{"OBJECTID":551,"COD_ISTAT":1001257,"COD_REG":1,"COD_PRO":1,"PRO_COM":1257,"LOC2011":125710001,"LOC":10001,"TIPO_LOC":1,"DENOMINAZI":"Santena","ALTITUDINE":"237","CENTRO_CL":1,"POPRES":10437,"MASCHI":5105,"FAMIGLIE":4152,"ABITAZIONI":4270,"EDIFICI":1877,"Shape_Leng":30746.072939,"Shape_Area":3554839.44706,"PRO_COM_T":"001257"}},
{"type":"Feature","geometry":{"type":"Point","coordinates":[6.859535917938413,44.9407540178904]},"properties":{"OBJECTID":560,"COD_ISTAT":1001258,"COD_REG":1,"COD_PRO":1,"PRO_COM":1258,"LOC2011":125810002,"LOC":10002,"TIPO_LOC":1,"DENOMINAZI":"Sauze di Cesana","ALTITUDINE":"1560","CENTRO_CL":1,"POPRES":73,"MASCHI":39,"FAMIGLIE":39,"ABITAZIONI":210,"EDIFICI":97,"Shape_Leng":2050.14437888,"Shape_Area":96471.3352734,"PRO_COM_T":"001258"}},
{"type":"Feature","geometry":{"type":"Point","coordinates":[6.875295900872102,44.95707277965082]},"properties":{"OBJECTID":576,"COD_ISTAT":1001263,"COD_REG":1,"COD_PRO":1,"PRO_COM":1263,"LOC2011":126310003,"LOC":10003,"TIPO_LOC":1,"DENOMINAZI":"Colle Sestriere","ALTITUDINE":"2035","CENTRO_CL":1,"POPRES":646,"MASCHI":343,"FAMIGLIE":352,"ABITAZIONI":3998,"EDIFICI":168,"Shape_Leng":5952.09841873,"Shape_Area":664435.652353,"PRO_COM_T":"001263"}},
{"type":"Feature","geometry":{"type":"Point","coordinates":[7.993148317855014,45.40721214479454]},"properties":{"OBJECTID":578,"COD_ISTAT":1001264,"COD_REG":1,"COD_PRO":1,"PRO_COM":1264,"LOC2011":126410001,"LOC":10001,"TIPO_LOC":1,"DENOMINAZI":"Settimo Rottaro","ALTITUDINE":"258","CENTRO_CL":1,"POPRES":473,"MASCHI":229,"FAMIGLIE":219,"ABITAZIONI":254,"EDIFICI":244,"Shape_Leng":4719.92786187,"Shape_Area":357336.596222,"PRO_COM_T":"001264"}},
{"type":"Feature","geometry":{"type":"Point","coordinates":[7.487728115013086,45.210426144280625]},"properties":{"OBJECTID":583,"COD_ISTAT":1001289,"COD_REG":1,"COD_PRO":1,"PRO_COM":1289,"LOC2011":128910001,"LOC":10001,"TIPO_LOC":1,"DENOMINAZI":"Varisella","ALTITUDINE":"521","CENTRO_CL":1,"POPRES":713,"MASCHI":346,"FAMIGLIE":324,"ABITAZIONI":421,"EDIFICI":370,"Shape_Leng":8523.17934187,"Shape_Area":409488.090697,"PRO_COM_T":"001289"}},
{"type":"Feature","geometry":{"type":"Point","coordinates":[7.741114854761841,45.235883683139065]},"properties":{"OBJECTID":602,"COD_ISTAT":1001135,"COD_REG":1,"COD_PRO":1,"PRO_COM":1135,"LOC2011":113510001,"LOC":10001,"TIPO_LOC":1,"DENOMINAZI":"Lombardore","ALTITUDINE":"268","CENTRO_CL":1,"POPRES":1308,"MASCHI":673,"FAMIGLIE":537,"ABITAZIONI":606,"EDIFICI":383,"Shape_Leng":11592.4822297,"Shape_Area":689808.179159,"PRO_COM_T":"001135"}},
{"type":"Feature","geometry":{"type":"Point","coordinates":[7.634795830387161,44.84078598318255]},"properties":{"OBJECTID":609,"COD_ISTAT":1001136,"COD_REG":1,"COD_PRO":1,"PRO_COM":1136,"LOC2011":113610001,"LOC":10001,"TIPO_LOC":1,"DENOMINAZI":"Lombriasco","ALTITUDINE":"241","CENTRO_CL":1,"POPRES":1007,"MASCHI":512,"FAMIGLIE":430,"ABITAZIONI":514,"EDIFICI":362,"Shape_Leng":6080.99685638,"Shape_Area":455424.68918,"PRO_COM_T":"001136"}},
{"type":"Feature","geometry":{"type":"Point","coordinates":[7.812125443055055,45.4412205906596]},"properties":{"OBJECTID":610,"COD_ISTAT":1001137,"COD_REG":1,"COD_PRO":1,"PRO_COM":1137,"LOC2011":113710001,"LOC":10001,"TIPO_LOC":1,"DENOMINAZI":"Loranzè","ALTITUDINE":"243","CENTRO_CL":1,"POPRES":810,"MASCHI":396,"FAMIGLIE":353,"ABITAZIONI":403,"EDIFICI":305,"Shape_Leng":10492.8860106,"Shape_Area":536435.385632,"PRO_COM_T":"001137"}},
{"type":"Feature","geometry":{"type":"Point","coordinates":[7.781944936564215,45.44471329554731]},"properties":{"OBJECTID":612,"COD_ISTAT":1001138,"COD_REG":1,"COD_PRO":1,"PRO_COM":1138,"LOC2011":113810001,"LOC":10001,"TIPO_LOC":1,"DENOMINAZI":"Lugnacco","ALTITUDINE":"600","CENTRO_CL":1,"POPRES":265,"MASCHI":128,"FAMIGLIE":125,"ABITAZIONI":243,"EDIFICI":209,"Shape_Leng":6410.67791391,"Shape_Area":258025.476934,"PRO_COM_T":"001138"}},
{"type":"Feature","geometry":{"type":"Point","coordinates":[7.253539925642372,44.815079346241944]},"properties":{"OBJECTID":613,"COD_ISTAT":1001139,"COD_REG":1,"COD_PRO":1,"PRO_COM":1139,"LOC2011":113910001,"LOC":10001,"TIPO_LOC":1,"DENOMINAZI":"Airali","ALTITUDINE":"524","CENTRO_CL":1,"POPRES":5619,"MASCHI":2637,"FAMIGLIE":2634,"ABITAZIONI":2898,"EDIFICI":1228,"Shape_Leng":28219.7901351,"Shape_Area":2692532.36189,"PRO_COM_T":"001139"}},
{"type":"Feature","geometry":{"type":"Point","coordinates":[7.859753941914833,45.32954514865214]},"properties":{"OBJECTID":616,"COD_ISTAT":1001172,"COD_REG":1,"COD_PRO":1,"PRO_COM":1172,"LOC2011":117210001,"LOC":10001,"TIPO_LOC":1,"DENOMINAZI":"Orio Canavese","ALTITUDINE":"327","CENTRO_CL":1,"POPRES":800,"MASCHI":401,"FAMIGLIE":372,"ABITAZIONI":481,"EDIFICI":374,"Shape_Leng":7911.24822781,"Shape_Area":473726.955762,"PRO_COM_T":"001172"}},
{"type":"Feature","geometry":{"type":"Point","coordinates":[7.3436087324136645,44.84879582681067]},"properties":{"OBJECTID":617,"COD_ISTAT":1001173,"COD_REG":1,"COD_PRO":1,"PRO_COM":1173,"LOC2011":117310001,"LOC":10001,"TIPO_LOC":1,"DENOMINAZI":"Osasco","ALTITUDINE":"343","CENTRO_CL":1,"POPRES":645,"MASCHI":301,"FAMIGLIE":270,"ABITAZIONI":282,"EDIFICI":165,"Shape_Leng":5295.02497084,"Shape_Area":279958.191266,"PRO_COM_T":"001173"}},
{"type":"Feature","geometry":{"type":"Point","coordinates":[7.60867316703738,44.87068005922817]},"properties":{"OBJECTID":626,"COD_ISTAT":1001174,"COD_REG":1,"COD_PRO":1,"PRO_COM":1174,"LOC2011":117410001,"LOC":10001,"TIPO_LOC":1,"DENOMINAZI":"Osasio","ALTITUDINE":"241","CENTRO_CL":1,"POPRES":856,"MASCHI":448,"FAMIGLIE":355,"ABITAZIONI":350,"EDIFICI":290,"Shape_Leng":5575.51897556,"Shape_Area":471657.923218,"PRO_COM_T":"001174"}},
{"type":"Feature","geometry":{"type":"Point","coordinates":[6.83239932647885,45.03422488189641]},"properties":{"OBJECTID":630,"COD_ISTAT":1001175,"COD_REG":1,"COD_PRO":1,"PRO_COM":1175,"LOC2011":117510003,"LOC":10003,"TIPO_LOC":1,"DENOMINAZI":"Oulx","ALTITUDINE":"1100","CENTRO_CL":1,"POPRES":2256,"MASCHI":1142,"FAMIGLIE":1124,"ABITAZIONI":3268,"EDIFICI":785,"Shape_Leng":15129.8190502,"Shape_Area":1370498.57997,"PRO_COM_T":"001175"}},
{"type":"Feature","geometry":{"type":"Point","coordinates":[7.629947199844488,45.21540724257368]},"properties":{"OBJECTID":648,"COD_ISTAT":1001248,"COD_REG":1,"COD_PRO":1,"PRO_COM":1248,"LOC2011":124810003,"LOC":10003,"TIPO_LOC":1,"DENOMINAZI":"San Maurizio","ALTITUDINE":"317","CENTRO_CL":1,"POPRES":8676,"MASCHI":4253,"FAMIGLIE":3571,"ABITAZIONI":3799,"EDIFICI":1824,"Shape_Leng":38315.1889208,"Shape_Area":3726838.18683,"PRO_COM_T":"001248"}},
{"type":"Feature","geometry":{"type":"Point","coordinates":[7.756648588772106,45.106478145069076]},"properties":{"OBJECTID":651,"COD_ISTAT":1001249,"COD_REG":1,"COD_PRO":1,"PRO_COM":1249,"LOC2011":124910001,"LOC":10001,"TIPO_LOC":1,"DENOMINAZI":"San Mauro Torinese","ALTITUDINE":"211","CENTRO_CL":1,"POPRES":18521,"MASCHI":8892,"FAMIGLIE":7833,"ABITAZIONI":8194,"EDIFICI":2473,"Shape_Leng":43579.7650685,"Shape_Area":4336859.63276,"PRO_COM_T":"001249"}},
{"type":"Feature","geometry":{"type":"Point","coordinates":[7.310492587247029,44.90560447175483]},"properties":{"OBJECTID":653,"COD_ISTAT":1001250,"COD_REG":1,"COD_PRO":1,"PRO_COM":1250,"LOC2011":125010001,"LOC":10001,"TIPO_LOC":1,"DENOMINAZI":"San Pietro Val Lemina","ALTITUDINE":"451","CENTRO_CL":1,"POPRES":1247,"MASCHI":611,"FAMIGLIE":568,"ABITAZIONI":558,"EDIFICI":516,"Shape_Leng":11734.9377152,"Shape_Area":705174.266884,"PRO_COM_T":"001250"}},
{"type":"Feature","geometry":{"type":"Point","coordinates":[7.669766154201827,45.35063594276179]},"properties":{"OBJECTID":657,"COD_ISTAT":1001251,"COD_REG":1,"COD_PRO":1,"PRO_COM":1251,"LOC2011":125110001,"LOC":10001,"TIPO_LOC":1,"DENOMINAZI":"San Ponso","ALTITUDINE":"347","CENTRO_CL":1,"POPRES":240,"MASCHI":122,"FAMIGLIE":106,"ABITAZIONI":133,"EDIFICI":106,"Shape_Leng":4226.05375389,"Shape_Area":176491.054646,"PRO_COM_T":"001251"}},
{"type":"Feature","geometry":{"type":"Point","coordinates":[7.849639699095414,45.1474828599031]},"properties":{"OBJECTID":660,"COD_ISTAT":1001252,"COD_REG":1,"COD_PRO":1,"PRO_COM":1252,"LOC2011":125210002,"LOC":10002,"TIPO_LOC":1,"DENOMINAZI":"Piana San Raffaele","ALTITUDINE":"195","CENTRO_CL":1,"POPRES":1971,"MASCHI":949,"FAMIGLIE":870,"ABITAZIONI":939,"EDIFICI":514,"Shape_Leng":17773.2075764,"Shape_Area":837548.973658,"PRO_COM_T":"001252"}},
{"type":"Feature","geometry":{"type":"Point","coordinates":[8.094306911992021,45.77370064831406]},"properties":{"OBJECTID":672,"COD_ISTAT":1002135,"COD_REG":1,"COD_PRO":2,"PRO_COM":2135,"LOC2011":213510002,"LOC":10002,"TIPO_LOC":1,"DENOMINAZI":"Scopello","ALTITUDINE":"659","CENTRO_CL":1,"POPRES":309,"MASCHI":151,"FAMIGLIE":177,"ABITAZIONI":1309,"EDIFICI":316,"Shape_Leng":4966.67700218,"Shape_Area":342331.706381,"PRO_COM_T":"002135"}},
{"type":"Feature","geometry":{"type":"Point","coordinates":[8.315984991171433,45.67717351792338]},"properties":{"OBJECTID":675,"COD_ISTAT":1002137,"COD_REG":1,"COD_PRO":2,"PRO_COM":2137,"LOC2011":213710001,"LOC":10001,"TIPO_LOC":1,"DENOMINAZI":"Serravalle Sesia","ALTITUDINE":"313","CENTRO_CL":1,"POPRES":4656,"MASCHI":2259,"FAMIGLIE":2047,"ABITAZIONI":2462,"EDIFICI":1187,"Shape_Leng":15658.7548927,"Shape_Area":2429934.8983,"PRO_COM_T":"002137"}},
{"type":"Feature","geometry":{"type":"Point","coordinates":[7.745220414619171,44.92002858713647]},"properties":{"OBJECTID":681,"COD_ISTAT":1001308,"COD_REG":1,"COD_PRO":1,"PRO_COM":1308,"LOC2011":130810002,"LOC":10002,"TIPO_LOC":1,"DENOMINAZI":"Villastellone","ALTITUDINE":"234","CENTRO_CL":1,"POPRES":4629,"MASCHI":2253,"FAMIGLIE":1939,"ABITAZIONI":2000,"EDIFICI":775,"Shape_Leng":19856.7573155,"Shape_Area":2210281.48797,"PRO_COM_T":"001308"}},
{"type":"Feature","geometry":{"type":"Point","coordinates":[7.979987450388117,44.427773885825204]},"properties":{"OBJECTID":687,"COD_ISTAT":1004052,"COD_REG":1,"COD_PRO":4,"PRO_COM":4052,"LOC2011":405210001,"LOC":10001,"TIPO_LOC":1,"DENOMINAZI":"Castellino Tanaro","ALTITUDINE":"613","CENTRO_CL":1,"POPRES":38,"MASCHI":19,"FAMIGLIE":21,"ABITAZIONI":38,"EDIFICI":36,"Shape_Leng":1632.14516567,"Shape_Area":39861.6923737,"PRO_COM_T":"004052"}},
{"type":"Feature","geometry":{"type":"Point","coordinates":[7.211949593241701,44.40882787894637]},"properties":{"OBJECTID":694,"COD_ISTAT":1004053,"COD_REG":1,"COD_PRO":4,"PRO_COM":4053,"LOC2011":405310001,"LOC":10001,"TIPO_LOC":1,"DENOMINAZI":"Campomolino","ALTITUDINE":"1141","CENTRO_CL":1,"POPRES":16,"MASCHI":11,"FAMIGLIE":13,"ABITAZIONI":72,"EDIFICI":67,"Shape_Leng":492.735999236,"Shape_Area":14168.3812079,"PRO_COM_T":"004053"}},
{"type":"Feature","geometry":{"type":"Point","coordinates":[8.128660033278871,44.35424481293467]},"properties":{"OBJECTID":700,"COD_ISTAT":1004054,"COD_REG":1,"COD_PRO":4,"PRO_COM":4054,"LOC2011":405410001,"LOC":10001,"TIPO_LOC":1,"DENOMINAZI":"Castelnuovo di Ceva","ALTITUDINE":"743","CENTRO_CL":1,"POPRES":121,"MASCHI":55,"FAMIGLIE":62,"ABITAZIONI":103,"EDIFICI":106,"Shape_Leng":1818.22057093,"Shape_Area":94878.6564313,"PRO_COM_T":"004054"}},
{"type":"Feature","geometry":{"type":"Point","coordinates":[7.975747986758692,44.62326163274611]},"properties":{"OBJECTID":702,"COD_ISTAT":1004055,"COD_REG":1,"COD_PRO":4,"PRO_COM":4055,"LOC2011":405510001,"LOC":10001,"TIPO_LOC":1,"DENOMINAZI":"Castiglione Falletto","ALTITUDINE":"350","CENTRO_CL":1,"POPRES":228,"MASCHI":113,"FAMIGLIE":97,"ABITAZIONI":121,"EDIFICI":113,"Shape_Leng":2791.94093962,"Shape_Area":129609.177903,"PRO_COM_T":"004055"}},
{"type":"Feature","geometry":{"type":"Point","coordinates":[8.032821245212324,44.738513880217106]},"properties":{"OBJECTID":709,"COD_ISTAT":1004101,"COD_REG":1,"COD_PRO":4,"PRO_COM":4101,"LOC2011":410110002,"LOC":10002,"TIPO_LOC":1,"DENOMINAZI":"Guarene","ALTITUDINE":"360","CENTRO_CL":1,"POPRES":756,"MASCHI":374,"FAMIGLIE":313,"ABITAZIONI":417,"EDIFICI":372,"Shape_Leng":6236.89878921,"Shape_Area":407054.196942,"PRO_COM_T":"004101"}},
{"type":"Feature","geometry":{"type":"Point","coordinates":[8.01335040760457,44.44286728995473]},"properties":{"OBJECTID":720,"COD_ISTAT":1004102,"COD_REG":1,"COD_PRO":4,"PRO_COM":4102,"LOC2011":410210001,"LOC":10001,"TIPO_LOC":1,"DENOMINAZI":"Igliano","ALTITUDINE":"532","CENTRO_CL":1,"POPRES":30,"MASCHI":15,"FAMIGLIE":11,"ABITAZIONI":20,"EDIFICI":26,"Shape_Leng":1042.19184181,"Shape_Area":62098.2510537,"PRO_COM_T":"004102"}},
{"type":"Feature","geometry":{"type":"Point","coordinates":[7.381661346371261,44.58715998423138]},"properties":{"OBJECTID":723,"COD_ISTAT":1004103,"COD_REG":1,"COD_PRO":4,"PRO_COM":4103,"LOC2011":410310001,"LOC":10001,"TIPO_LOC":1,"DENOMINAZI":"Isasca","ALTITUDINE":"660","CENTRO_CL":1,"POPRES":48,"MASCHI":25,"FAMIGLIE":26,"ABITAZIONI":57,"EDIFICI":83,"Shape_Leng":760.251597725,"Shape_Area":27370.2263021,"PRO_COM_T":"004103"}},
{"type":"Feature","geometry":{"type":"Point","coordinates":[7.5562418924814025,44.6262816763347]},"properties":{"OBJECTID":731,"COD_ISTAT":1004104,"COD_REG":1,"COD_PRO":4,"PRO_COM":4104,"LOC2011":410410001,"LOC":10001,"TIPO_LOC":1,"DENOMINAZI":"Lagnasco","ALTITUDINE":"353","CENTRO_CL":1,"POPRES":1083,"MASCHI":546,"FAMIGLIE":420,"ABITAZIONI":462,"EDIFICI":322,"Shape_Leng":5641.20350792,"Shape_Area":808573.10385,"PRO_COM_T":"004104"}},
{"type":"Feature","geometry":{"type":"Point","coordinates":[7.74592906776156,44.31873592576631]},"properties":{"OBJECTID":735,"COD_ISTAT":1004190,"COD_REG":1,"COD_PRO":4,"PRO_COM":4190,"LOC2011":419010008,"LOC":10008,"TIPO_LOC":1,"DENOMINAZI":"Roccaforte Mondovì","ALTITUDINE":"574","CENTRO_CL":1,"POPRES":975,"MASCHI":490,"FAMIGLIE":428,"ABITAZIONI":672,"EDIFICI":283,"Shape_Leng":8242.29524269,"Shape_Area":578211.741725,"PRO_COM_T":"004190"}},
{"type":"Feature","geometry":{"type":"Point","coordinates":[7.439860510458268,44.34083546278989]},"properties":{"OBJECTID":743,"COD_ISTAT":1004191,"COD_REG":1,"COD_PRO":4,"PRO_COM":4191,"LOC2011":419110002,"LOC":10002,"TIPO_LOC":1,"DENOMINAZI":"Roccasparvera","ALTITUDINE":"674","CENTRO_CL":1,"POPRES":410,"MASCHI":213,"FAMIGLIE":184,"ABITAZIONI":249,"EDIFICI":281,"Shape_Leng":4547.59083772,"Shape_Area":195614.381691,"PRO_COM_T":"004191"}},
{"type":"Feature","geometry":{"type":"Point","coordinates":[7.477742958374184,44.314092487877204]},"properties":{"OBJECTID":750,"COD_ISTAT":1004192,"COD_REG":1,"COD_PRO":4,"PRO_COM":4192,"LOC2011":419210002,"LOC":10002,"TIPO_LOC":1,"DENOMINAZI":"Roccavione","ALTITUDINE":"646","CENTRO_CL":1,"POPRES":2454,"MASCHI":1201,"FAMIGLIE":1088,"ABITAZIONI":1484,"EDIFICI":700,"Shape_Leng":7124.26470673,"Shape_Area":650479.018599,"PRO_COM_T":"004192"}},
{"type":"Feature","geometry":{"type":"Point","coordinates":[7.281473745334144,45.370300666942995]},"properties":{"OBJECTID":763,"COD_ISTAT":1001118,"COD_REG":1,"COD_PRO":1,"PRO_COM":1118,"LOC2011":111810001,"LOC":10001,"TIPO_LOC":1,"DENOMINAZI":"Pialpetta","ALTITUDINE":"1062","CENTRO_CL":1,"POPRES":83,"MASCHI":48,"FAMIGLIE":45,"ABITAZIONI":306,"EDIFICI":276,"Shape_Leng":4899.43422698,"Shape_Area":254913.405997,"PRO_COM_T":"001118"}},
{"type":"Feature","geometry":{"type":"Point","coordinates":[8.519701298184607,45.19301055478143]},"properties":{"OBJECTID":770,"COD_ISTAT":1002082,"COD_REG":1,"COD_PRO":2,"PRO_COM":2082,"LOC2011":208210002,"LOC":10002,"TIPO_LOC":1,"DENOMINAZI":"Motta Dè Conti","ALTITUDINE":"107","CENTRO_CL":1,"POPRES":774,"MASCHI":382,"FAMIGLIE":359,"ABITAZIONI":434,"EDIFICI":419,"Shape_Leng":4976.52726739,"Shape_Area":562636.660874,"PRO_COM_T":"002082"}},
{"type":"Feature","geometry":{"type":"Point","coordinates":[8.30983633340717,45.36308012017061]},"properties":{"OBJECTID":771,"COD_ISTAT":1002088,"COD_REG":1,"COD_PRO":2,"PRO_COM":2088,"LOC2011":208810001,"LOC":10001,"TIPO_LOC":1,"DENOMINAZI":"Olcenengo","ALTITUDINE":"149","CENTRO_CL":1,"POPRES":701,"MASCHI":338,"FAMIGLIE":302,"ABITAZIONI":330,"EDIFICI":268,"Shape_Leng":4615.64787657,"Shape_Area":447868.033179,"PRO_COM_T":"002088"}},
{"type":"Feature","geometry":{"type":"Point","coordinates":[8.381376980464474,45.40213700253892]},"properties":{"OBJECTID":773,"COD_ISTAT":1002089,"COD_REG":1,"COD_PRO":2,"PRO_COM":2089,"LOC2011":208910001,"LOC":10001,"TIPO_LOC":1,"DENOMINAZI":"Oldenico","ALTITUDINE":"143","CENTRO_CL":1,"POPRES":221,"MASCHI":113,"FAMIGLIE":102,"ABITAZIONI":123,"EDIFICI":126,"Shape_Leng":2320.67482167,"Shape_Area":204979.32718,"PRO_COM_T":"002089"}},
{"type":"Feature","geometry":{"type":"Point","coordinates":[7.953895321878593,45.83257074620937]},"properties":{"OBJECTID":780,"COD_ISTAT":1002114,"COD_REG":1,"COD_PRO":2,"PRO_COM":2114,"LOC2011":211410002,"LOC":10002,"TIPO_LOC":1,"DENOMINAZI":"Riva Valdobbia","ALTITUDINE":"1112","CENTRO_CL":1,"POPRES":152,"MASCHI":75,"FAMIGLIE":83,"ABITAZIONI":381,"EDIFICI":217,"Shape_Leng":6210.3332367,"Shape_Area":434584.738699,"PRO_COM_T":"002114"}},
{"type":"Feature","geometry":{"type":"Point","coordinates":[8.417780483679184,45.21347180073012]},"properties":{"OBJECTID":788,"COD_ISTAT":1002115,"COD_REG":1,"COD_PRO":2,"PRO_COM":2115,"LOC2011":211510001,"LOC":10001,"TIPO_LOC":1,"DENOMINAZI":"Rive","ALTITUDINE":"126","CENTRO_CL":1,"POPRES":467,"MASCHI":221,"FAMIGLIE":222,"ABITAZIONI":292,"EDIFICI":268,"Shape_Leng":4198.85966031,"Shape_Area":282636.268904,"PRO_COM_T":"002115"}},
{"type":"Feature","geometry":{"type":"Point","coordinates":[8.28776559845012,45.60577882958205]},"properties":{"OBJECTID":790,"COD_ISTAT":1002116,"COD_REG":1,"COD_PRO":2,"PRO_COM":2116,"LOC2011":211610002,"LOC":10002,"TIPO_LOC":1,"DENOMINAZI":"San Maurizio","ALTITUDINE":"278","CENTRO_CL":1,"POPRES":1032,"MASCHI":507,"FAMIGLIE":443,"ABITAZIONI":659,"EDIFICI":542,"Shape_Leng":10705.8488963,"Shape_Area":679540.446077,"PRO_COM_T":"002116"}},
{"type":"Feature","geometry":{"type":"Point","coordinates":[7.933462883946044,44.78105912634364]},"properties":{"OBJECTID":798,"COD_ISTAT":1004140,"COD_REG":1,"COD_PRO":4,"PRO_COM":4140,"LOC2011":414010001,"LOC":10001,"TIPO_LOC":1,"DENOMINAZI":"Monteu Roero","ALTITUDINE":"395","CENTRO_CL":1,"POPRES":187,"MASCHI":83,"FAMIGLIE":84,"ABITAZIONI":136,"EDIFICI":99,"Shape_Leng":2536.51326905,"Shape_Area":113069.709386,"PRO_COM_T":"004140"}},
{"type":"Feature","geometry":{"type":"Point","coordinates":[8.176487556219627,44.63697236985116]},"properties":{"OBJECTID":805,"COD_ISTAT":1004193,"COD_REG":1,"COD_PRO":4,"PRO_COM":4193,"LOC2011":419310001,"LOC":10001,"TIPO_LOC":1,"DENOMINAZI":"Rocchetta Belbo","ALTITUDINE":"273","CENTRO_CL":1,"POPRES":108,"MASCHI":58,"FAMIGLIE":48,"ABITAZIONI":57,"EDIFICI":49,"Shape_Leng":2628.52240152,"Shape_Area":145561.297378,"PRO_COM_T":"004193"}},
{"type":"Feature","geometry":{"type":"Point","coordinates":[7.975520647051342,44.67905690434368]},"properties":{"OBJECTID":806,"COD_ISTAT":1004194,"COD_REG":1,"COD_PRO":4,"PRO_COM":4194,"LOC2011":419410001,"LOC":10001,"TIPO_LOC":1,"DENOMINAZI":"Roddi","ALTITUDINE":"284","CENTRO_CL":1,"POPRES":1121,"MASCHI":552,"FAMIGLIE":437,"ABITAZIONI":499,"EDIFICI":370,"Shape_Leng":7882.3271443,"Shape_Area":647394.179763,"PRO_COM_T":"004194"}},
{"type":"Feature","geometry":{"type":"Point","coordinates":[8.339430070762615,45.05486036387745]},"properties":{"OBJECTID":809,"COD_ISTAT":1006120,"COD_REG":1,"COD_PRO":6,"PRO_COM":6120,"LOC2011":612010001,"LOC":10001,"TIPO_LOC":1,"DENOMINAZI":"Ottiglio","ALTITUDINE":"264","CENTRO_CL":1,"POPRES":449,"MASCHI":223,"FAMIGLIE":209,"ABITAZIONI":360,"EDIFICI":295,"Shape_Leng":4975.40686464,"Shape_Area":352308.350977,"PRO_COM_T":"006120"}},
{"type":"Feature","geometry":{"type":"Point","coordinates":[8.78071344999326,45.73817107334838]},"properties":{"OBJECTID":823,"COD_ISTAT":3012124,"COD_REG":3,"COD_PRO":12,"PRO_COM":12124,"LOC2011":1212410004,"LOC":10004,"TIPO_LOC":1,"DENOMINAZI":"Sumirago","ALTITUDINE":"392","CENTRO_CL":1,"POPRES":5655,"MASCHI":2776,"FAMIGLIE":2222,"ABITAZIONI":2453,"EDIFICI":1259,"Shape_Leng":49114.0928232,"Shape_Area":3073194.67911,"PRO_COM_T":"012124"}},
{"type":"Feature","geometry":{"type":"Point","coordinates":[8.61858984415277,45.762435475238505]},"properties":{"OBJECTID":826,"COD_ISTAT":3012125,"COD_REG":3,"COD_PRO":12,"PRO_COM":12125,"LOC2011":1212510001,"LOC":10001,"TIPO_LOC":1,"DENOMINAZI":"Taino","ALTITUDINE":"262","CENTRO_CL":1,"POPRES":3706,"MASCHI":1832,"FAMIGLIE":1586,"ABITAZIONI":2031,"EDIFICI":1214,"Shape_Leng":20282.8863646,"Shape_Area":1992032.18028,"PRO_COM_T":"012125"}},
{"type":"Feature","geometry":{"type":"Point","coordinates":[8.700086300825953,45.785479299814085]},"properties":{"OBJECTID":827,"COD_ISTAT":3012126,"COD_REG":3,"COD_PRO":12,"PRO_COM":12126,"LOC2011":1212610001,"LOC":10001,"TIPO_LOC":1,"DENOMINAZI":"Ternate","ALTITUDINE":"281","CENTRO_CL":1,"POPRES":2295,"MASCHI":1129,"FAMIGLIE":977,"ABITAZIONI":1034,"EDIFICI":577,"Shape_Leng":10343.3145197,"Shape_Area":1718207.39197,"PRO_COM_T":"012126"}},
{"type":"Feature","geometry":{"type":"Point","coordinates":[7.765982645148723,45.13798265376074]},"properties":{"OBJECTID":829,"COD_ISTAT":1001265,"COD_REG":1,"COD_PRO":1,"PRO_COM":1265,"LOC2011":126510006,"LOC":10006,"TIPO_LOC":1,"DENOMINAZI":"Settimo Torinese","ALTITUDINE":"207","CENTRO_CL":1,"POPRES":44122,"MASCHI":21258,"FAMIGLIE":18645,"ABITAZIONI":19784,"EDIFICI":4802,"Shape_Leng":28181.4392919,"Shape_Area":7363778.40007,"PRO_COM_T":"001265"}},
{"type":"Feature","geometry":{"type":"Point","coordinates":[7.740781082180558,44.98356884874504]},"properties":{"OBJECTID":831,"COD_ISTAT":1001280,"COD_REG":1,"COD_PRO":1,"PRO_COM":1280,"LOC2011":128010001,"LOC":10001,"TIPO_LOC":1,"DENOMINAZI":"Trofarello","ALTITUDINE":"276","CENTRO_CL":1,"POPRES":10763,"MASCHI":5187,"FAMIGLIE":4455,"ABITAZIONI":4641,"EDIFICI":1364,"Shape_Leng":17596.917916,"Shape_Area":2755861.45103,"PRO_COM_T":"001280"}},
{"type":"Feature","geometry":{"type":"Point","coordinates":[7.028853117921122,45.04890797889307]},"properties":{"OBJECTID":835,"COD_ISTAT":1001281,"COD_REG":1,"COD_PRO":1,"PRO_COM":1281,"LOC2011":128110001,"LOC":10001,"TIPO_LOC":1,"DENOMINAZI":"Usseaux","ALTITUDINE":"1416","CENTRO_CL":1,"POPRES":61,"MASCHI":32,"FAMIGLIE":41,"ABITAZIONI":105,"EDIFICI":113,"Shape_Leng":1383.45053314,"Shape_Area":42970.8120602,"PRO_COM_T":"001281"}},
{"type":"Feature","geometry":{"type":"Point","coordinates":[7.220827856262277,45.23353433073993]},"properties":{"OBJECTID":841,"COD_ISTAT":1001282,"COD_REG":1,"COD_PRO":1,"PRO_COM":1282,"LOC2011":128210004,"LOC":10004,"TIPO_LOC":1,"DENOMINAZI":"Usseglio","ALTITUDINE":"1265","CENTRO_CL":1,"POPRES":118,"MASCHI":58,"FAMIGLIE":62,"ABITAZIONI":530,"EDIFICI":506,"Shape_Leng":5778.60787662,"Shape_Area":311589.834912,"PRO_COM_T":"001282"}},
{"type":"Feature","geometry":{"type":"Point","coordinates":[7.2920706374723645,45.105185705422116]},"properties":{"OBJECTID":846,"COD_ISTAT":1001283,"COD_REG":1,"COD_PRO":1,"PRO_COM":1283,"LOC2011":128310002,"LOC":10002,"TIPO_LOC":1,"DENOMINAZI":"Vaie","ALTITUDINE":"381","CENTRO_CL":1,"POPRES":1450,"MASCHI":720,"FAMIGLIE":618,"ABITAZIONI":808,"EDIFICI":538,"Shape_Leng":8710.25400629,"Shape_Area":871065.821159,"PRO_COM_T":"001283"}},
{"type":"Feature","geometry":{"type":"Point","coordinates":[7.496372222484316,45.22401910799792]},"properties":{"OBJECTID":847,"COD_ISTAT":1001286,"COD_REG":1,"COD_PRO":1,"PRO_COM":1286,"LOC2011":128610001,"LOC":10001,"TIPO_LOC":1,"DENOMINAZI":"Vallo Torinese","ALTITUDINE":"508","CENTRO_CL":1,"POPRES":748,"MASCHI":377,"FAMIGLIE":335,"ABITAZIONI":448,"EDIFICI":403,"Shape_Leng":6227.0116517,"Shape_Area":383748.545163,"PRO_COM_T":"001286"}},
{"type":"Feature","geometry":{"type":"Point","coordinates":[7.657927794827028,45.37045686567123]},"properties":{"OBJECTID":848,"COD_ISTAT":1001287,"COD_REG":1,"COD_PRO":1,"PRO_COM":1287,"LOC2011":128710001,"LOC":10001,"TIPO_LOC":1,"DENOMINAZI":"Valperga","ALTITUDINE":"385","CENTRO_CL":1,"POPRES":2548,"MASCHI":1189,"FAMIGLIE":1078,"ABITAZIONI":1177,"EDIFICI":747,"Shape_Leng":30554.8992503,"Shape_Area":2123576.0821,"PRO_COM_T":"001287"}},
{"type":"Feature","geometry":{"type":"Point","coordinates":[7.54947971622795,45.52179242858135]},"properties":{"OBJECTID":862,"COD_ISTAT":1001288,"COD_REG":1,"COD_PRO":1,"PRO_COM":1288,"LOC2011":128810004,"LOC":10004,"TIPO_LOC":1,"DENOMINAZI":"Valprato Soana","ALTITUDINE":"1113","CENTRO_CL":1,"POPRES":41,"MASCHI":18,"FAMIGLIE":31,"ABITAZIONI":202,"EDIFICI":109,"Shape_Leng":2347.60214834,"Shape_Area":82654.5191377,"PRO_COM_T":"001288"}},
{"type":"Feature","geometry":{"type":"Point","coordinates":[7.7772902204425085,45.451641011834795]},"properties":{"OBJECTID":874,"COD_ISTAT":1001182,"COD_REG":1,"COD_PRO":1,"PRO_COM":1182,"LOC2011":118210001,"LOC":10001,"TIPO_LOC":1,"DENOMINAZI":"Pecco","ALTITUDINE":"650","CENTRO_CL":1,"POPRES":192,"MASCHI":92,"FAMIGLIE":101,"ABITAZIONI":169,"EDIFICI":188,"Shape_Leng":2983.45045528,"Shape_Area":111278.357065,"PRO_COM_T":"001182"}},
{"type":"Feature","geometry":{"type":"Point","coordinates":[7.752104301453105,45.016275975426254]},"properties":{"OBJECTID":875,"COD_ISTAT":1001183,"COD_REG":1,"COD_PRO":1,"PRO_COM":1183,"LOC2011":118310002,"LOC":10002,"TIPO_LOC":1,"DENOMINAZI":"Pecetto","ALTITUDINE":"407","CENTRO_CL":1,"POPRES":2323,"MASCHI":1126,"FAMIGLIE":1015,"ABITAZIONI":1084,"EDIFICI":610,"Shape_Leng":19126.4622951,"Shape_Area":1395448.54265,"PRO_COM_T":"001183"}},
{"type":"Feature","geometry":{"type":"Point","coordinates":[7.191645161445301,44.956208604539796]},"properties":{"OBJECTID":883,"COD_ISTAT":1001184,"COD_REG":1,"COD_PRO":1,"PRO_COM":1184,"LOC2011":118410002,"LOC":10002,"TIPO_LOC":1,"DENOMINAZI":"Perosa Argentina","ALTITUDINE":"608","CENTRO_CL":1,"POPRES":2932,"MASCHI":1348,"FAMIGLIE":1461,"ABITAZIONI":2003,"EDIFICI":646,"Shape_Leng":9713.81094821,"Shape_Area":917629.354058,"PRO_COM_T":"001184"}},
{"type":"Feature","geometry":{"type":"Point","coordinates":[7.325830710051904,45.10350968352918]},"properties":{"OBJECTID":888,"COD_ISTAT":1001081,"COD_REG":1,"COD_PRO":1,"PRO_COM":1081,"LOC2011":108110001,"LOC":10001,"TIPO_LOC":1,"DENOMINAZI":"Chiusa di San Michele","ALTITUDINE":"378","CENTRO_CL":1,"POPRES":1631,"MASCHI":810,"FAMIGLIE":717,"ABITAZIONI":906,"EDIFICI":588,"Shape_Leng":7450.52096669,"Shape_Area":761619.457877,"PRO_COM_T":"001081"}},
{"type":"Feature","geometry":{"type":"Point","coordinates":[7.89484018049143,45.192267583560856]},"properties":{"OBJECTID":893,"COD_ISTAT":1001082,"COD_REG":1,"COD_PRO":1,"PRO_COM":1082,"LOC2011":108210004,"LOC":10004,"TIPO_LOC":1,"DENOMINAZI":"Chivasso","ALTITUDINE":"183","CENTRO_CL":1,"POPRES":23017,"MASCHI":11105,"FAMIGLIE":10171,"ABITAZIONI":11001,"EDIFICI":3579,"Shape_Leng":35245.1900357,"Shape_Area":4906128.90148,"PRO_COM_T":"001082"}},
{"type":"Feature","geometry":{"type":"Point","coordinates":[7.849359011998455,44.6976050022221]},"properties":{"OBJECTID":911,"COD_ISTAT":1004029,"COD_REG":1,"COD_PRO":4,"PRO_COM":4029,"LOC2011":402910003,"LOC":10003,"TIPO_LOC":1,"DENOMINAZI":"Bra","ALTITUDINE":"290","CENTRO_CL":1,"POPRES":24072,"MASCHI":11510,"FAMIGLIE":10387,"ABITAZIONI":11563,"EDIFICI":5406,"Shape_Leng":35914.4285921,"Shape_Area":8692115.17852,"PRO_COM_T":"004029"}},
{"type":"Feature","geometry":{"type":"Point","coordinates":[7.875601115276911,44.395799670232655]},"properties":{"OBJECTID":931,"COD_ISTAT":1004030,"COD_REG":1,"COD_PRO":4,"PRO_COM":4030,"LOC2011":403010001,"LOC":10001,"TIPO_LOC":1,"DENOMINAZI":"Borgo","ALTITUDINE":"546","CENTRO_CL":1,"POPRES":74,"MASCHI":39,"FAMIGLIE":35,"ABITAZIONI":93,"EDIFICI":70,"Shape_Leng":1213.87621685,"Shape_Area":32541.2475052,"PRO_COM_T":"004030"}},
{"type":"Feature","geometry":{"type":"Point","coordinates":[8.097322570209169,44.60466680598826]},"properties":{"OBJECTID":933,"COD_ISTAT":1004106,"COD_REG":1,"COD_PRO":4,"PRO_COM":4106,"LOC2011":410610001,"LOC":10001,"TIPO_LOC":1,"DENOMINAZI":"Lequio Berria","ALTITUDINE":"715","CENTRO_CL":1,"POPRES":159,"MASCHI":81,"FAMIGLIE":78,"ABITAZIONI":116,"EDIFICI":107,"Shape_Leng":2875.74590386,"Shape_Area":123855.755827,"PRO_COM_T":"004106"}},
{"type":"Feature","geometry":{"type":"Point","coordinates":[7.882197295871183,44.56020408023514]},"properties":{"OBJECTID":937,"COD_ISTAT":1004107,"COD_REG":1,"COD_PRO":4,"PRO_COM":4107,"LOC2011":410710002,"LOC":10002,"TIPO_LOC":1,"DENOMINAZI":"Lequio Tanaro","ALTITUDINE":"328","CENTRO_CL":1,"POPRES":418,"MASCHI":217,"FAMIGLIE":156,"ABITAZIONI":197,"EDIFICI":153,"Shape_Leng":9359.15676928,"Shape_Area":520103.076711,"PRO_COM_T":"004107"}},
{"type":"Feature","geometry":{"type":"Point","coordinates":[7.9670389140226066,44.401867951785]},"properties":{"OBJECTID":942,"COD_ISTAT":1004108,"COD_REG":1,"COD_PRO":4,"PRO_COM":4108,"LOC2011":410810001,"LOC":10001,"TIPO_LOC":1,"DENOMINAZI":"Lesegno","ALTITUDINE":"422","CENTRO_CL":1,"POPRES":450,"MASCHI":213,"FAMIGLIE":211,"ABITAZIONI":327,"EDIFICI":280,"Shape_Leng":6060.84160471,"Shape_Area":314803.128238,"PRO_COM_T":"004108"}},
{"type":"Feature","geometry":{"type":"Point","coordinates":[8.155842015652594,44.53787812307637]},"properties":{"OBJECTID":949,"COD_ISTAT":1004109,"COD_REG":1,"COD_PRO":4,"PRO_COM":4109,"LOC2011":410910001,"LOC":10001,"TIPO_LOC":1,"DENOMINAZI":"Levice","ALTITUDINE":"547","CENTRO_CL":1,"POPRES":24,"MASCHI":8,"FAMIGLIE":16,"ABITAZIONI":49,"EDIFICI":51,"Shape_Leng":1313.30418924,"Shape_Area":68133.6141241,"PRO_COM_T":"004109"}},
{"type":"Feature","geometry":{"type":"Point","coordinates":[7.576956571864191,44.20108300710376]},"properties":{"OBJECTID":951,"COD_ISTAT":1004110,"COD_REG":1,"COD_PRO":4,"PRO_COM":4110,"LOC2011":411010001,"LOC":10001,"TIPO_LOC":1,"DENOMINAZI":"Limone Piemonte","ALTITUDINE":"1009","CENTRO_CL":1,"POPRES":1054,"MASCHI":504,"FAMIGLIE":582,"ABITAZIONI":4214,"EDIFICI":699,"Shape_Leng":7995.91506987,"Shape_Area":659029.440084,"PRO_COM_T":"004110"}},
{"type":"Feature","geometry":{"type":"Point","coordinates":[8.019291314968466,44.57391142921037]},"properties":{"OBJECTID":955,"COD_ISTAT":1004195,"COD_REG":1,"COD_PRO":4,"PRO_COM":4195,"LOC2011":419510001,"LOC":10001,"TIPO_LOC":1,"DENOMINAZI":"Roddino","ALTITUDINE":"610","CENTRO_CL":1,"POPRES":147,"MASCHI":74,"FAMIGLIE":78,"ABITAZIONI":132,"EDIFICI":85,"Shape_Leng":3580.19394775,"Shape_Area":105613.807719,"PRO_COM_T":"004195"}},
{"type":"Feature","geometry":{"type":"Point","coordinates":[8.058029402469833,44.630698933762886]},"properties":{"OBJECTID":956,"COD_ISTAT":1004196,"COD_REG":1,"COD_PRO":4,"PRO_COM":4196,"LOC2011":419610001,"LOC":10001,"TIPO_LOC":1,"DENOMINAZI":"Rodello","ALTITUDINE":"537","CENTRO_CL":1,"POPRES":593,"MASCHI":286,"FAMIGLIE":251,"ABITAZIONI":283,"EDIFICI":187,"Shape_Leng":4517.99663571,"Shape_Area":219947.119584,"PRO_COM_T":"004196"}},
{"type":"Feature","geometry":{"type":"Point","coordinates":[7.432308689358351,44.54256898139263]},"properties":{"OBJECTID":958,"COD_ISTAT":1004197,"COD_REG":1,"COD_PRO":4,"PRO_COM":4197,"LOC2011":419710002,"LOC":10002,"TIPO_LOC":1,"DENOMINAZI":"Rossana","ALTITUDINE":"535","CENTRO_CL":1,"POPRES":625,"MASCHI":311,"FAMIGLIE":263,"ABITAZIONI":382,"EDIFICI":225,"Shape_Leng":5693.36710398,"Shape_Area":400515.103894,"PRO_COM_T":"004197"}},
{"type":"Feature","geometry":{"type":"Point","coordinates":[8.206808864675308,45.07191286354846]},"properties":{"OBJECTID":962,"COD_ISTAT":1006117,"COD_REG":1,"COD_PRO":6,"PRO_COM":6117,"LOC2011":611710001,"LOC":10001,"TIPO_LOC":1,"DENOMINAZI":"Serra","ALTITUDINE":"289","CENTRO_CL":1,"POPRES":55,"MASCHI":29,"FAMIGLIE":25,"ABITAZIONI":43,"EDIFICI":37,"Shape_Leng":1747.84634285,"Shape_Area":51538.5142061,"PRO_COM_T":"006117"}},
{"type":"Feature","geometry":{"type":"Point","coordinates":[8.368065079194722,45.03673576733043]},"properties":{"OBJECTID":967,"COD_ISTAT":1006118,"COD_REG":1,"COD_PRO":6,"PRO_COM":6118,"LOC2011":611810001,"LOC":10001,"TIPO_LOC":1,"DENOMINAZI":"Olivola","ALTITUDINE":"278","CENTRO_CL":1,"POPRES":77,"MASCHI":36,"FAMIGLIE":37,"ABITAZIONI":82,"EDIFICI":78,"Shape_Leng":1357.79341626,"Shape_Area":49031.955084,"PRO_COM_T":"006118"}},
{"type":"Feature","geometry":{"type":"Point","coordinates":[8.562288879359672,44.69040978595211]},"properties":{"OBJECTID":969,"COD_ISTAT":1006119,"COD_REG":1,"COD_PRO":6,"PRO_COM":6119,"LOC2011":611910001,"LOC":10001,"TIPO_LOC":1,"DENOMINAZI":"Orsara Bormida","ALTITUDINE":"220","CENTRO_CL":1,"POPRES":228,"MASCHI":113,"FAMIGLIE":111,"ABITAZIONI":203,"EDIFICI":165,"Shape_Leng":2746.58235494,"Shape_Area":96372.8317275,"PRO_COM_T":"006119"}},
{"type":"Feature","geometry":{"type":"Point","coordinates":[8.911891791643033,45.7069554728277]},"properties":{"OBJECTID":975,"COD_ISTAT":3012127,"COD_REG":3,"COD_PRO":12,"PRO_COM":12127,"LOC2011":1212710001,"LOC":10001,"TIPO_LOC":1,"DENOMINAZI":"Tradate","ALTITUDINE":"303","CENTRO_CL":1,"POPRES":17154,"MASCHI":8303,"FAMIGLIE":7236,"ABITAZIONI":7789,"EDIFICI":3359,"Shape_Leng":39587.3232844,"Shape_Area":6540203.16645,"PRO_COM_T":"012127"}},
{"type":"Feature","geometry":{"type":"Point","coordinates":[8.674259018010673,45.80189702018352]},"properties":{"OBJECTID":977,"COD_ISTAT":3012128,"COD_REG":3,"COD_PRO":12,"PRO_COM":12128,"LOC2011":1212810001,"LOC":10001,"TIPO_LOC":1,"DENOMINAZI":"Travedona Monate","ALTITUDINE":"273","CENTRO_CL":1,"POPRES":3222,"MASCHI":1564,"FAMIGLIE":1390,"ABITAZIONI":1785,"EDIFICI":854,"Shape_Leng":12717.1210697,"Shape_Area":2072597.44463,"PRO_COM_T":"012128"}},
{"type":"Feature","geometry":{"type":"Point","coordinates":[7.303960916524787,45.05279507441519]},"properties":{"OBJECTID":1015,"COD_ISTAT":1001089,"COD_REG":1,"COD_PRO":1,"PRO_COM":1089,"LOC2011":108910002,"LOC":10002,"TIPO_LOC":1,"DENOMINAZI":"Coazze","ALTITUDINE":"750","CENTRO_CL":1,"POPRES":2785,"MASCHI":1400,"FAMIGLIE":1324,"ABITAZIONI":2461,"EDIFICI":1225,"Shape_Leng":23172.6202592,"Shape_Area":1966997.80603,"PRO_COM_T":"001089"}},
{"type":"Feature","geometry":{"type":"Point","coordinates":[7.574174468237927,45.076633381500876]},"properties":{"OBJECTID":1024,"COD_ISTAT":1001090,"COD_REG":1,"COD_PRO":1,"PRO_COM":1090,"LOC2011":109010002,"LOC":10002,"TIPO_LOC":1,"DENOMINAZI":"Collegno","ALTITUDINE":"302","CENTRO_CL":1,"POPRES":46524,"MASCHI":22184,"FAMIGLIE":20687,"ABITAZIONI":22219,"EDIFICI":5008,"Shape_Leng":24548.2240892,"Shape_Area":6181395.4825,"PRO_COM_T":"001090"}},
{"type":"Feature","geometry":{"type":"Point","coordinates":[7.9909580478130335,45.386844022135634]},"properties":{"OBJECTID":1041,"COD_ISTAT":1001095,"COD_REG":1,"COD_PRO":1,"PRO_COM":1095,"LOC2011":109510001,"LOC":10001,"TIPO_LOC":1,"DENOMINAZI":"Cossano Canavese","ALTITUDINE":"346","CENTRO_CL":1,"POPRES":336,"MASCHI":169,"FAMIGLIE":154,"ABITAZIONI":214,"EDIFICI":200,"Shape_Leng":4349.87680684,"Shape_Area":186213.356421,"PRO_COM_T":"001095"}},
{"type":"Feature","geometry":{"type":"Point","coordinates":[7.81593886774185,45.361443082707325]},"properties":{"OBJECTID":1046,"COD_ISTAT":1001096,"COD_REG":1,"COD_PRO":1,"PRO_COM":1096,"LOC2011":109610001,"LOC":10001,"TIPO_LOC":1,"DENOMINAZI":"Cuceglio","ALTITUDINE":"375","CENTRO_CL":1,"POPRES":959,"MASCHI":462,"FAMIGLIE":439,"ABITAZIONI":524,"EDIFICI":374,"Shape_Leng":9835.03458439,"Shape_Area":512501.746843,"PRO_COM_T":"001096"}},
{"type":"Feature","geometry":{"type":"Point","coordinates":[7.3748253776730035,44.98177833738387]},"properties":{"OBJECTID":1048,"COD_ISTAT":1001097,"COD_REG":1,"COD_PRO":1,"PRO_COM":1097,"LOC2011":109710002,"LOC":10002,"TIPO_LOC":1,"DENOMINAZI":"Cumiana","ALTITUDINE":"377","CENTRO_CL":1,"POPRES":5498,"MASCHI":2696,"FAMIGLIE":2460,"ABITAZIONI":2964,"EDIFICI":1840,"Shape_Leng":57068.5291417,"Shape_Area":4148574.16872,"PRO_COM_T":"001097"}},
{"type":"Feature","geometry":{"type":"Point","coordinates":[7.343080560041343,44.47256315428581]},"properties":{"OBJECTID":1059,"COD_ISTAT":1004187,"COD_REG":1,"COD_PRO":4,"PRO_COM":4187,"LOC2011":418710003,"LOC":10003,"TIPO_LOC":1,"DENOMINAZI":"Tettorosso","ALTITUDINE":"700","CENTRO_CL":1,"POPRES":945,"MASCHI":443,"FAMIGLIE":401,"ABITAZIONI":559,"EDIFICI":377,"Shape_Leng":8482.0232991,"Shape_Area":982450.61095,"PRO_COM_T":"004187"}},
{"type":"Feature","geometry":{"type":"Point","coordinates":[7.905393344148924,44.37380232251837]},"properties":{"OBJECTID":1065,"COD_ISTAT":1004210,"COD_REG":1,"COD_PRO":4,"PRO_COM":4210,"LOC2011":421010004,"LOC":10004,"TIPO_LOC":1,"DENOMINAZI":"San Michele Mondovì","ALTITUDINE":"444","CENTRO_CL":1,"POPRES":1368,"MASCHI":654,"FAMIGLIE":577,"ABITAZIONI":859,"EDIFICI":432,"Shape_Leng":6102.21012434,"Shape_Area":327434.693436,"PRO_COM_T":"004210"}},
{"type":"Feature","geometry":{"type":"Point","coordinates":[7.7245436061240325,44.506134048317264]},"properties":{"OBJECTID":1076,"COD_ISTAT":1004211,"COD_REG":1,"COD_PRO":4,"PRO_COM":4211,"LOC2011":421110004,"LOC":10004,"TIPO_LOC":1,"DENOMINAZI":"Sant'Albano Stura","ALTITUDINE":"378","CENTRO_CL":1,"POPRES":1480,"MASCHI":749,"FAMIGLIE":614,"ABITAZIONI":665,"EDIFICI":372,"Shape_Leng":4777.82641604,"Shape_Area":503683.30422,"PRO_COM_T":"004211"}},
{"type":"Feature","geometry":{"type":"Point","coordinates":[7.5966233431926256,45.35190995378227]},"properties":{"OBJECTID":1090,"COD_ISTAT":1001207,"COD_REG":1,"COD_PRO":1,"PRO_COM":1207,"LOC2011":120710001,"LOC":10001,"TIPO_LOC":1,"DENOMINAZI":"Pratiglione","ALTITUDINE":"611","CENTRO_CL":1,"POPRES":323,"MASCHI":153,"FAMIGLIE":152,"ABITAZIONI":226,"EDIFICI":184,"Shape_Leng":4104.47946966,"Shape_Area":200617.594785,"PRO_COM_T":"001207"}},
{"type":"Feature","geometry":{"type":"Point","coordinates":[7.780644367436658,45.425727751244075]},"properties":{"OBJECTID":1096,"COD_ISTAT":1001208,"COD_REG":1,"COD_PRO":1,"PRO_COM":1208,"LOC2011":120810001,"LOC":10001,"TIPO_LOC":1,"DENOMINAZI":"Quagliuzzo","ALTITUDINE":"334","CENTRO_CL":1,"POPRES":244,"MASCHI":121,"FAMIGLIE":122,"ABITAZIONI":146,"EDIFICI":157,"Shape_Leng":4106.84507068,"Shape_Area":148633.506319,"PRO_COM_T":"001208"}},
{"type":"Feature","geometry":{"type":"Point","coordinates":[7.832223087252822,45.52411434151289]},"properties":{"OBJECTID":1099,"COD_ISTAT":1001209,"COD_REG":1,"COD_PRO":1,"PRO_COM":1209,"LOC2011":120910001,"LOC":10001,"TIPO_LOC":1,"DENOMINAZI":"Quassolo","ALTITUDINE":"275","CENTRO_CL":1,"POPRES":350,"MASCHI":156,"FAMIGLIE":169,"ABITAZIONI":202,"EDIFICI":164,"Shape_Leng":5416.52224263,"Shape_Area":286493.389528,"PRO_COM_T":"001209"}},
{"type":"Feature","geometry":{"type":"Point","coordinates":[7.807616187012572,45.56221222000595]},"properties":{"OBJECTID":1101,"COD_ISTAT":1001210,"COD_REG":1,"COD_PRO":1,"PRO_COM":1210,"LOC2011":121010001,"LOC":10001,"TIPO_LOC":1,"DENOMINAZI":"Quincinetto","ALTITUDINE":"295","CENTRO_CL":1,"POPRES":1036,"MASCHI":519,"FAMIGLIE":475,"ABITAZIONI":714,"EDIFICI":504,"Shape_Leng":7097.34165259,"Shape_Area":411185.702886,"PRO_COM_T":"001210"}},
{"type":"Feature","geometry":{"type":"Point","coordinates":[7.427763917702196,45.0534837589593]},"properties":{"OBJECTID":1102,"COD_ISTAT":1001211,"COD_REG":1,"COD_PRO":1,"PRO_COM":1211,"LOC2011":121110001,"LOC":10001,"TIPO_LOC":1,"DENOMINAZI":"Reano","ALTITUDINE":"470","CENTRO_CL":1,"POPRES":1598,"MASCHI":778,"FAMIGLIE":705,"ABITAZIONI":833,"EDIFICI":674,"Shape_Leng":12202.4578966,"Shape_Area":1041720.1752,"PRO_COM_T":"001211"}},
{"type":"Feature","geometry":{"type":"Point","coordinates":[7.5022759585295535,45.43268484138353]},"properties":{"OBJECTID":1104,"COD_ISTAT":1001212,"COD_REG":1,"COD_PRO":1,"PRO_COM":1212,"LOC2011":121210001,"LOC":10001,"TIPO_LOC":1,"DENOMINAZI":"Ribordone","ALTITUDINE":"1023","CENTRO_CL":1,"POPRES":15,"MASCHI":7,"FAMIGLIE":12,"ABITAZIONI":50,"EDIFICI":50,"Shape_Leng":797.502451766,"Shape_Area":25196.4384122,"PRO_COM_T":"001212"}},
{"type":"Feature","geometry":{"type":"Point","coordinates":[7.711287683020649,45.380983074931194]},"properties":{"OBJECTID":1111,"COD_ISTAT":1001066,"COD_REG":1,"COD_PRO":1,"PRO_COM":1066,"LOC2011":106610002,"LOC":10002,"TIPO_LOC":1,"DENOMINAZI":"Castellamonte","ALTITUDINE":"375","CENTRO_CL":1,"POPRES":7215,"MASCHI":3460,"FAMIGLIE":3100,"ABITAZIONI":3214,"EDIFICI":1574,"Shape_Leng":54881.2850172,"Shape_Area":3552203.93872,"PRO_COM_T":"001066"}},
{"type":"Feature","geometry":{"type":"Point","coordinates":[7.695129870974721,45.43826325262049]},"properties":{"OBJECTID":1138,"COD_ISTAT":1001067,"COD_REG":1,"COD_PRO":1,"PRO_COM":1067,"LOC2011":106710001,"LOC":10001,"TIPO_LOC":1,"DENOMINAZI":"Castelnuovo Nigra","ALTITUDINE":"828","CENTRO_CL":1,"POPRES":151,"MASCHI":75,"FAMIGLIE":98,"ABITAZIONI":306,"EDIFICI":241,"Shape_Leng":5761.65282769,"Shape_Area":169294.899642,"PRO_COM_T":"001067"}},
{"type":"Feature","geometry":{"type":"Point","coordinates":[7.81571585986732,45.10953986301239]},"properties":{"OBJECTID":1145,"COD_ISTAT":1001068,"COD_REG":1,"COD_PRO":1,"PRO_COM":1068,"LOC2011":106810001,"LOC":10001,"TIPO_LOC":1,"DENOMINAZI":"Castiglione Torinese","ALTITUDINE":"216","CENTRO_CL":1,"POPRES":5131,"MASCHI":2522,"FAMIGLIE":2091,"ABITAZIONI":2226,"EDIFICI":1186,"Shape_Leng":30171.4305372,"Shape_Area":1895594.08881,"PRO_COM_T":"001068"}},
{"type":"Feature","geometry":{"type":"Point","coordinates":[8.050562309381428,45.15502351686048]},"properties":{"OBJECTID":1156,"COD_ISTAT":1001069,"COD_REG":1,"COD_PRO":1,"PRO_COM":1069,"LOC2011":106910001,"LOC":10001,"TIPO_LOC":1,"DENOMINAZI":"Pomaretto","ALTITUDINE":"177","CENTRO_CL":1,"POPRES":2050,"MASCHI":1005,"FAMIGLIE":882,"ABITAZIONI":997,"EDIFICI":663,"Shape_Leng":20275.3048542,"Shape_Area":1407379.3693,"PRO_COM_T":"001069"}},
{"type":"Feature","geometry":{"type":"Point","coordinates":[7.501233139666094,44.86109517475602]},"properties":{"OBJECTID":1157,"COD_ISTAT":1001071,"COD_REG":1,"COD_PRO":1,"PRO_COM":1071,"LOC2011":107110001,"LOC":10001,"TIPO_LOC":1,"DENOMINAZI":"Cercenasco","ALTITUDINE":"256","CENTRO_CL":1,"POPRES":1795,"MASCHI":896,"FAMIGLIE":759,"ABITAZIONI":813,"EDIFICI":556,"Shape_Leng":10333.3859752,"Shape_Area":868008.972031,"PRO_COM_T":"001071"}},
{"type":"Feature","geometry":{"type":"Point","coordinates":[7.388906471335523,45.31330242419748]},"properties":{"OBJECTID":1159,"COD_ISTAT":1001072,"COD_REG":1,"COD_PRO":1,"PRO_COM":1072,"LOC2011":107210002,"LOC":10002,"TIPO_LOC":1,"DENOMINAZI":"Ceres","ALTITUDINE":"704","CENTRO_CL":1,"POPRES":405,"MASCHI":197,"FAMIGLIE":218,"ABITAZIONI":721,"EDIFICI":261,"Shape_Leng":3989.61843335,"Shape_Area":251416.33004,"PRO_COM_T":"001072"}},
{"type":"Feature","geometry":{"type":"Point","coordinates":[7.232365939519897,45.4330724821408]},"properties":{"OBJECTID":1168,"COD_ISTAT":1001073,"COD_REG":1,"COD_PRO":1,"PRO_COM":1073,"LOC2011":107310001,"LOC":10001,"TIPO_LOC":1,"DENOMINAZI":"Ceresole Reale","ALTITUDINE":"1620","CENTRO_CL":1,"POPRES":46,"MASCHI":23,"FAMIGLIE":28,"ABITAZIONI":99,"EDIFICI":69,"Shape_Leng":3142.72240484,"Shape_Area":107674.229991,"PRO_COM_T":"001073"}},
{"type":"Feature","geometry":{"type":"Point","coordinates":[6.7914438390006975,44.95413408552598]},"properties":{"OBJECTID":1172,"COD_ISTAT":1001074,"COD_REG":1,"COD_PRO":1,"PRO_COM":1074,"LOC2011":107410002,"LOC":10002,"TIPO_LOC":1,"DENOMINAZI":"Cesana Torinese","ALTITUDINE":"1354","CENTRO_CL":1,"POPRES":617,"MASCHI":329,"FAMIGLIE":299,"ABITAZIONI":1863,"EDIFICI":333,"Shape_Leng":7513.89699287,"Shape_Area":792883.06496,"PRO_COM_T":"001074"}},
{"type":"Feature","geometry":{"type":"Point","coordinates":[7.3411092472966795,45.363699089534734]},"properties":{"OBJECTID":1182,"COD_ISTAT":1001075,"COD_REG":1,"COD_PRO":1,"PRO_COM":1075,"LOC2011":107510001,"LOC":10001,"TIPO_LOC":1,"DENOMINAZI":"Chialamberto","ALTITUDINE":"851","CENTRO_CL":1,"POPRES":200,"MASCHI":94,"FAMIGLIE":116,"ABITAZIONI":776,"EDIFICI":328,"Shape_Leng":9853.20348496,"Shape_Area":323612.28037,"PRO_COM_T":"001075"}},
{"type":"Feature","geometry":{"type":"Point","coordinates":[7.169860054677103,45.148078819027226]},"properties":{"OBJECTID":1187,"COD_ISTAT":1001076,"COD_REG":1,"COD_PRO":1,"PRO_COM":1076,"LOC2011":107610001,"LOC":10001,"TIPO_LOC":1,"DENOMINAZI":"Chianocco","ALTITUDINE":"550","CENTRO_CL":1,"POPRES":224,"MASCHI":104,"FAMIGLIE":106,"ABITAZIONI":187,"EDIFICI":156,"Shape_Leng":3464.69044365,"Shape_Area":131374.886605,"PRO_COM_T":"001076"}},
{"type":"Feature","geometry":{"type":"Point","coordinates":[7.904468834731426,45.49718970368609]},"properties":{"OBJECTID":1197,"COD_ISTAT":1001077,"COD_REG":1,"COD_PRO":1,"PRO_COM":1077,"LOC2011":107710002,"LOC":10002,"TIPO_LOC":1,"DENOMINAZI":"Chiaverano","ALTITUDINE":"450","CENTRO_CL":1,"POPRES":1396,"MASCHI":661,"FAMIGLIE":609,"ABITAZIONI":776,"EDIFICI":568,"Shape_Leng":12092.4060667,"Shape_Area":1036302.6997,"PRO_COM_T":"001077"}},
{"type":"Feature","geometry":{"type":"Point","coordinates":[7.820915847626564,45.00954264653225]},"properties":{"OBJECTID":1204,"COD_ISTAT":1001078,"COD_REG":1,"COD_PRO":1,"PRO_COM":1078,"LOC2011":107810001,"LOC":10001,"TIPO_LOC":1,"DENOMINAZI":"Chieri","ALTITUDINE":"283","CENTRO_CL":1,"POPRES":32169,"MASCHI":15292,"FAMIGLIE":14228,"ABITAZIONI":15293,"EDIFICI":4878,"Shape_Leng":45644.4052622,"Shape_Area":6787329.4557,"PRO_COM_T":"001078"}},
{"type":"Feature","geometry":{"type":"Point","coordinates":[8.173457544645297,45.34267398659177]},"properties":{"OBJECTID":1460,"COD_ISTAT":1002150,"COD_REG":1,"COD_PRO":2,"PRO_COM":2150,"LOC2011":215010002,"LOC":10002,"TIPO_LOC":1,"DENOMINAZI":"Tronzano Vercellese","ALTITUDINE":"182","CENTRO_CL":1,"POPRES":2997,"MASCHI":1428,"FAMIGLIE":1257,"ABITAZIONI":1445,"EDIFICI":907,"Shape_Leng":11216.7379892,"Shape_Area":1167298.58177,"PRO_COM_T":"002150"}},
{"type":"Feature","geometry":{"type":"Point","coordinates":[8.47719358248343,45.54199286855277]},"properties":{"OBJECTID":1463,"COD_ISTAT":1003027,"COD_REG":1,"COD_PRO":3,"PRO_COM":3027,"LOC2011":302710001,"LOC":10001,"TIPO_LOC":1,"DENOMINAZI":"Briona","ALTITUDINE":"205","CENTRO_CL":1,"POPRES":1018,"MASCHI":465,"FAMIGLIE":457,"ABITAZIONI":519,"EDIFICI":318,"Shape_Leng":5666.45947272,"Shape_Area":585510.309906,"PRO_COM_T":"003027"}},
{"type":"Feature","geometry":{"type":"Point","coordinates":[8.589183712123372,45.51795056138117]},"properties":{"OBJECTID":1467,"COD_ISTAT":1003030,"COD_REG":1,"COD_PRO":3,"PRO_COM":3030,"LOC2011":303010001,"LOC":10001,"TIPO_LOC":1,"DENOMINAZI":"Caltignaga","ALTITUDINE":"183","CENTRO_CL":1,"POPRES":1743,"MASCHI":864,"FAMIGLIE":745,"ABITAZIONI":784,"EDIFICI":486,"Shape_Leng":8494.73136435,"Shape_Area":1038503.70132,"PRO_COM_T":"003030"}},
{"type":"Feature","geometry":{"type":"Point","coordinates":[8.661396001266795,45.5002815164939]},"properties":{"OBJECTID":1471,"COD_ISTAT":1003032,"COD_REG":1,"COD_PRO":3,"PRO_COM":3032,"LOC2011":303210001,"LOC":10001,"TIPO_LOC":1,"DENOMINAZI":"Cameri","ALTITUDINE":"161","CENTRO_CL":1,"POPRES":10330,"MASCHI":5041,"FAMIGLIE":4284,"ABITAZIONI":4557,"EDIFICI":2263,"Shape_Leng":18313.8464229,"Shape_Area":2566420.96059,"PRO_COM_T":"003032"}},
{"type":"Feature","geometry":{"type":"Point","coordinates":[8.41733008806288,45.53425558714463]},"properties":{"OBJECTID":1479,"COD_ISTAT":1003036,"COD_REG":1,"COD_PRO":3,"PRO_COM":3036,"LOC2011":303610001,"LOC":10001,"TIPO_LOC":1,"DENOMINAZI":"Carpignano Sesia","ALTITUDINE":"204","CENTRO_CL":1,"POPRES":2562,"MASCHI":1209,"FAMIGLIE":1146,"ABITAZIONI":1203,"EDIFICI":885,"Shape_Leng":8301.52271905,"Shape_Area":1169964.66186,"PRO_COM_T":"003036"}},
{"type":"Feature","geometry":{"type":"Point","coordinates":[8.467742572819166,45.43627956681858]},"properties":{"OBJECTID":1480,"COD_ISTAT":1003037,"COD_REG":1,"COD_PRO":3,"PRO_COM":3037,"LOC2011":303710001,"LOC":10001,"TIPO_LOC":1,"DENOMINAZI":"Casalbeltrame","ALTITUDINE":"151","CENTRO_CL":1,"POPRES":958,"MASCHI":474,"FAMIGLIE":364,"ABITAZIONI":389,"EDIFICI":340,"Shape_Leng":4781.83874615,"Shape_Area":522310.849284,"PRO_COM_T":"003037"}},
{"type":"Feature","geometry":{"type":"Point","coordinates":[7.059454040684861,45.13866451617102]},"properties":{"OBJECTID":1527,"COD_ISTAT":1001270,"COD_REG":1,"COD_PRO":1,"PRO_COM":1270,"LOC2011":127010004,"LOC":10004,"TIPO_LOC":1,"DENOMINAZI":"Susa","ALTITUDINE":"503","CENTRO_CL":1,"POPRES":5596,"MASCHI":2666,"FAMIGLIE":2418,"ABITAZIONI":2944,"EDIFICI":1035,"Shape_Leng":32351.352678,"Shape_Area":2095581.33157,"PRO_COM_T":"001270"}},
{"type":"Feature","geometry":{"type":"Point","coordinates":[8.422293314156704,45.496302418070755]},"properties":{"OBJECTID":1537,"COD_ISTAT":1003083,"COD_REG":1,"COD_PRO":3,"PRO_COM":3083,"LOC2011":308310001,"LOC":10001,"TIPO_LOC":1,"DENOMINAZI":"Landiona","ALTITUDINE":"184","CENTRO_CL":1,"POPRES":575,"MASCHI":274,"FAMIGLIE":252,"ABITAZIONI":264,"EDIFICI":265,"Shape_Leng":4570.60516302,"Shape_Area":390720.844018,"PRO_COM_T":"003083"}},
{"type":"Feature","geometry":{"type":"Point","coordinates":[8.555705448383812,45.820256023770824]},"properties":{"OBJECTID":1541,"COD_ISTAT":1003084,"COD_REG":1,"COD_PRO":3,"PRO_COM":3084,"LOC2011":308410003,"LOC":10003,"TIPO_LOC":1,"DENOMINAZI":"Lesa","ALTITUDINE":"198","CENTRO_CL":1,"POPRES":2037,"MASCHI":944,"FAMIGLIE":1026,"ABITAZIONI":2065,"EDIFICI":1107,"Shape_Leng":12120.2462284,"Shape_Area":2927324.68005,"PRO_COM_T":"003084"}},
{"type":"Feature","geometry":{"type":"Point","coordinates":[8.420891299649512,45.68905017043902]},"properties":{"OBJECTID":1542,"COD_ISTAT":1003088,"COD_REG":1,"COD_PRO":3,"PRO_COM":3088,"LOC2011":308810001,"LOC":10001,"TIPO_LOC":1,"DENOMINAZI":"Maggiora","ALTITUDINE":"397","CENTRO_CL":1,"POPRES":1655,"MASCHI":823,"FAMIGLIE":701,"ABITAZIONI":786,"EDIFICI":565,"Shape_Leng":9890.68717161,"Shape_Area":892620.842931,"PRO_COM_T":"003088"}},
{"type":"Feature","geometry":{"type":"Point","coordinates":[8.459377798018952,45.49536032903307]},"properties":{"OBJECTID":1546,"COD_ISTAT":1003090,"COD_REG":1,"COD_PRO":3,"PRO_COM":3090,"LOC2011":309010001,"LOC":10001,"TIPO_LOC":1,"DENOMINAZI":"Mandello Vitta","ALTITUDINE":"175","CENTRO_CL":1,"POPRES":220,"MASCHI":100,"FAMIGLIE":99,"ABITAZIONI":98,"EDIFICI":126,"Shape_Leng":2184.66752089,"Shape_Area":150515.941564,"PRO_COM_T":"003090"}},
{"type":"Feature","geometry":{"type":"Point","coordinates":[7.33421231463476,44.92204812637796]},"properties":{"OBJECTID":2123,"COD_ISTAT":1001222,"COD_REG":1,"COD_PRO":1,"PRO_COM":1222,"LOC2011":122210001,"LOC":10001,"TIPO_LOC":1,"DENOMINAZI":"Roletto","ALTITUDINE":"412","CENTRO_CL":1,"POPRES":734,"MASCHI":356,"FAMIGLIE":304,"ABITAZIONI":362,"EDIFICI":253,"Shape_Leng":13309.079015,"Shape_Area":481544.286422,"PRO_COM_T":"001222"}},
{"type":"Feature","geometry":{"type":"Point","coordinates":[7.954470063648866,45.16577218739716]},"properties":{"OBJECTID":2534,"COD_ISTAT":1001253,"COD_REG":1,"COD_PRO":1,"PRO_COM":1253,"LOC2011":125310002,"LOC":10002,"TIPO_LOC":1,"DENOMINAZI":"San Sebastiano da Po","ALTITUDINE":"175","CENTRO_CL":1,"POPRES":549,"MASCHI":263,"FAMIGLIE":234,"ABITAZIONI":240,"EDIFICI":195,"Shape_Leng":10766.2824557,"Shape_Area":447634.6699,"PRO_COM_T":"001253"}},
{"type":"Feature","geometry":{"type":"Point","coordinates":[7.299066491766416,44.866032786688386]},"properties":{"OBJECTID":2551,"COD_ISTAT":1001254,"COD_REG":1,"COD_PRO":1,"PRO_COM":1254,"LOC2011":125410003,"LOC":10003,"TIPO_LOC":1,"DENOMINAZI":"San Secondo di Pinerolo","ALTITUDINE":"413","CENTRO_CL":1,"POPRES":1447,"MASCHI":678,"FAMIGLIE":626,"ABITAZIONI":737,"EDIFICI":366,"Shape_Leng":20146.3294124,"Shape_Area":858928.048549,"PRO_COM_T":"001254"}},
{"type":"Feature","geometry":{"type":"Point","coordinates":[8.112430136364615,45.790397290259726]},"properties":{"OBJECTID":3270,"COD_ISTAT":1002134,"COD_REG":1,"COD_PRO":2,"PRO_COM":2134,"LOC2011":213410002,"LOC":10002,"TIPO_LOC":1,"DENOMINAZI":"Scopa","ALTITUDINE":"626","CENTRO_CL":1,"POPRES":256,"MASCHI":121,"FAMIGLIE":132,"ABITAZIONI":530,"EDIFICI":273,"Shape_Leng":5006.24010919,"Shape_Area":252011.421703,"PRO_COM_T":"002134"}},
{"type":"Feature","geometry":{"type":"Point","coordinates":[8.330746431477836,45.729030679324325]},"properties":{"OBJECTID":3279,"COD_ISTAT":1002152,"COD_REG":1,"COD_PRO":2,"PRO_COM":2152,"LOC2011":215210003,"LOC":10003,"TIPO_LOC":1,"DENOMINAZI":"Valduggia","ALTITUDINE":"390","CENTRO_CL":1,"POPRES":1257,"MASCHI":596,"FAMIGLIE":532,"ABITAZIONI":572,"EDIFICI":323,"Shape_Leng":7369.94171987,"Shape_Area":764615.79739,"PRO_COM_T":"002152"}},
{"type":"Feature","geometry":{"type":"Point","coordinates":[8.380721337407037,45.42579662567021]},"properties":{"OBJECTID":3423,"COD_ISTAT":1002003,"COD_REG":1,"COD_PRO":2,"PRO_COM":2003,"LOC2011":200310001,"LOC":10001,"TIPO_LOC":1,"DENOMINAZI":"Albano Vercellese","ALTITUDINE":"151","CENTRO_CL":1,"POPRES":281,"MASCHI":139,"FAMIGLIE":130,"ABITAZIONI":158,"EDIFICI":114,"Shape_Leng":2976.22165246,"Shape_Area":334151.504798,"PRO_COM_T":"002003"}},
{"type":"Feature","geometry":{"type":"Point","coordinates":[8.073305490639418,45.36872709739453]},"properties":{"OBJECTID":3424,"COD_ISTAT":1002004,"COD_REG":1,"COD_PRO":2,"PRO_COM":2004,"LOC2011":200410001,"LOC":10001,"TIPO_LOC":1,"DENOMINAZI":"Alice Castello","ALTITUDINE":"258","CENTRO_CL":1,"POPRES":2192,"MASCHI":1082,"FAMIGLIE":895,"ABITAZIONI":1034,"EDIFICI":851,"Shape_Leng":11376.3596246,"Shape_Area":1418847.93725,"PRO_COM_T":"002004"}},
{"type":"Feature","geometry":{"type":"Point","coordinates":[8.38814088063764,45.495204636805006]},"properties":{"OBJECTID":3428,"COD_ISTAT":1002006,"COD_REG":1,"COD_PRO":2,"PRO_COM":2006,"LOC2011":200610001,"LOC":10001,"TIPO_LOC":1,"DENOMINAZI":"Arborio","ALTITUDINE":"185","CENTRO_CL":1,"POPRES":830,"MASCHI":433,"FAMIGLIE":407,"ABITAZIONI":466,"EDIFICI":354,"Shape_Leng":8362.12576526,"Shape_Area":711604.698828,"PRO_COM_T":"002006"}},
{"type":"Feature","geometry":{"type":"Point","coordinates":[8.412270067886324,45.26106509472551]},"properties":{"OBJECTID":3429,"COD_ISTAT":1002007,"COD_REG":1,"COD_PRO":2,"PRO_COM":2007,"LOC2011":200710001,"LOC":10001,"TIPO_LOC":1,"DENOMINAZI":"Asigliano Vercellese","ALTITUDINE":"127","CENTRO_CL":1,"POPRES":1355,"MASCHI":644,"FAMIGLIE":620,"ABITAZIONI":723,"EDIFICI":590,"Shape_Leng":11538.6197738,"Shape_Area":979794.522201,"PRO_COM_T":"002007"}},
{"type":"Feature","geometry":{"type":"Point","coordinates":[8.14114783702199,45.81826509866315]},"properties":{"OBJECTID":3430,"COD_ISTAT":1002008,"COD_REG":1,"COD_PRO":2,"PRO_COM":2008,"LOC2011":200810001,"LOC":10001,"TIPO_LOC":1,"DENOMINAZI":"Balmuccia","ALTITUDINE":"560","CENTRO_CL":1,"POPRES":93,"MASCHI":40,"FAMIGLIE":52,"ABITAZIONI":185,"EDIFICI":165,"Shape_Leng":2458.72346313,"Shape_Area":116496.365906,"PRO_COM_T":"002008"}},
{"type":"Feature","geometry":{"type":"Point","coordinates":[8.280239850455477,45.45608363157503]},"properties":{"OBJECTID":3431,"COD_ISTAT":1002009,"COD_REG":1,"COD_PRO":2,"PRO_COM":2009,"LOC2011":200910001,"LOC":10001,"TIPO_LOC":1,"DENOMINAZI":"Balocco","ALTITUDINE":"166","CENTRO_CL":1,"POPRES":101,"MASCHI":53,"FAMIGLIE":47,"ABITAZIONI":55,"EDIFICI":47,"Shape_Leng":1958.37363725,"Shape_Area":119084.856696,"PRO_COM_T":"002009"}},
{"type":"Feature","geometry":{"type":"Point","coordinates":[8.122999770741478,45.308087920245086]},"properties":{"OBJECTID":3433,"COD_ISTAT":1002011,"COD_REG":1,"COD_PRO":2,"PRO_COM":2011,"LOC2011":201110001,"LOC":10001,"TIPO_LOC":1,"DENOMINAZI":"Bianzè","ALTITUDINE":"182","CENTRO_CL":1,"POPRES":1777,"MASCHI":860,"FAMIGLIE":773,"ABITAZIONI":923,"EDIFICI":652,"Shape_Leng":9282.1400284,"Shape_Area":1188021.93574,"PRO_COM_T":"002011"}},
{"type":"Feature","geometry":{"type":"Point","coordinates":[8.11366925399704,45.8303227198941]},"properties":{"OBJECTID":3436,"COD_ISTAT":1002014,"COD_REG":1,"COD_PRO":2,"PRO_COM":2014,"LOC2011":201410001,"LOC":10001,"TIPO_LOC":1,"DENOMINAZI":"Boccioleto","ALTITUDINE":"667","CENTRO_CL":1,"POPRES":69,"MASCHI":31,"FAMIGLIE":41,"ABITAZIONI":113,"EDIFICI":80,"Shape_Leng":1188.91530133,"Shape_Area":26242.7736831,"PRO_COM_T":"002014"}},
{"type":"Feature","geometry":{"type":"Point","coordinates":[8.463159688122255,45.35615819779022]},"properties":{"OBJECTID":3441,"COD_ISTAT":1002017,"COD_REG":1,"COD_PRO":2,"PRO_COM":2017,"LOC2011":201710001,"LOC":10001,"TIPO_LOC":1,"DENOMINAZI":"Borgo Vercelli","ALTITUDINE":"126","CENTRO_CL":1,"POPRES":2113,"MASCHI":1017,"FAMIGLIE":889,"ABITAZIONI":992,"EDIFICI":671,"Shape_Leng":8123.59759784,"Shape_Area":906651.556821,"PRO_COM_T":"002017"}},
{"type":"Feature","geometry":{"type":"Point","coordinates":[7.9111827200002605,44.76076541383689]},